[
	{
		"name": "Kerk van de Nazarener Vlaardingen",
		"facebook_url": "https://www.facebook.com/kvdnvlaardingen",
		"twitter_name": "@kvdnvlaardingen",
		"website": "http://www.kvdnvlaardingen.info/",
		"twitter": {
			"statuses_count": 529,
			"followers_count": 204,
			"friends_count": 182
		},
		"facebook": {
			"graphUrl": "https://graph.facebook.com/kvdnvlaardingen",
			"id": "340107662675701",
			"likes": 833,
			"talking_about_count": 35,
			"were_here_count": 247,
			"checkins": 247,
			"location": {
				"city": "Vlaardingen",
				"country": "Netherlands",
				"latitude": 51.92750141183,
				"longitude": 4.3609637234657,
				"street": "Zwanensingel",
				"zip": "3136 GZ"
			},
			"website": "http://www.kvdnvlaardingen.nl"
		}
	},
	{
		"name": "Victory Outreach Rotterdam",
		"facebook_url": "https://www.facebook.com/VORotterdam",
		"twitter_name": "@VORotterdam",
		"twitter": {
			"statuses_count": 607,
			"followers_count": 478,
			"friends_count": 28
		},
		"facebook": {
			"graphUrl": "https://graph.facebook.com/VORotterdam",
			"id": "142866119103429",
			"likes": 1390,
			"talking_about_count": 49,
			"were_here_count": 5676,
			"checkins": 5676,
			"location": {
				"city": "Rotterdam",
				"country": "Netherlands",
				"latitude": 51.89317438237,
				"longitude": 4.4888759907179,
				"street": "Mijnsherenplein 9",
				"zip": "3081CN"
			},
			"website": "http://www.vorotterdam.nl"
		},
		"website": "http://www.vorotterdam.nl"
	},
	{
		"name": "BethEl Hoogeveen",
		"facebook_url": "https://www.facebook.com/BethElHoogeveen",
		"twitter_name": "@bethelhgv",
		"twitter": {
			"statuses_count": 5957,
			"followers_count": 193,
			"friends_count": 125
		},
		"facebook": {
			"graphUrl": "https://graph.facebook.com/BethElHoogeveen",
			"id": "136600443152407",
			"likes": 238,
			"talking_about_count": 47,
			"were_here_count": 171,
			"checkins": 171,
			"location": {
				"city": "Hoogeveen",
				"country": "Netherlands",
				"latitude": 52.7142484,
				"longitude": 6.4925457,
				"street": "Boekweitlaan 65a",
				"zip": "7906 LB"
			},
			"website": "http://www.beth-el.nl"
		},
		"website": "http://www.beth-el.nl"
	},
	{
		"name": "re:connect",
		"facebook_url": "https://www.facebook.com/reconnectnl",
		"twitter_name": "@reconnectnl",
		"twitter": {
			"statuses_count": 176,
			"followers_count": 81,
			"friends_count": 8
		},
		"facebook": {
			"graphUrl": "https://graph.facebook.com/reconnectnl",
			"id": "370576742963306",
			"likes": 676,
			"talking_about_count": 102,
			"were_here_count": 381,
			"checkins": 381,
			"location": {
				"city": "Haarlem",
				"country": "Netherlands",
				"latitude": 52.3825684,
				"longitude": 4.6387,
				"street": "Begijnhof 10",
				"zip": "2011 HE"
			},
			"website": "http://www.reconnect.cc"
		},
		"website": "http://www.reconnect.cc"
	},
	{
		"name": "Vrije Evangelisatie Zwolle",
		"facebook_url": "https://www.facebook.com/VEZwolle",
		"twitter_name": "@VEZwolle",
		"twitter": {
			"statuses_count": 1523,
			"followers_count": 1040,
			"friends_count": 303
		},
		"facebook": {
			"graphUrl": "https://graph.facebook.com/VEZwolle",
			"id": "167627793301411",
			"likes": 1993,
			"talking_about_count": 307,
			"were_here_count": 651,
			"checkins": 651,
			"location": {
				"city": "Zwolle",
				"country": "Netherlands",
				"latitude": 52.5153809,
				"longitude": 6.0746598,
				"street": "Rieteweg 12",
				"zip": "8041 AK"
			},
			"website": "http://www.vezwolle.nl"
		},
		"website": "http://www.vezwolle.nl"
	},
	{
		"name": "Paaskerk Oss",
		"facebook_url": "https://www.facebook.com/PaaskerkOss",
		"twitter_name": "@Paaskerk_Oss",
		"website": "http://www.pkn-oss.nl",
		"twitter": {
			"statuses_count": 1906,
			"followers_count": 95,
			"friends_count": 143
		},
		"facebook": {
			"graphUrl": "https://graph.facebook.com/PaaskerkOss",
			"id": "352468111459124",
			"likes": 70,
			"talking_about_count": 5,
			"were_here_count": 18,
			"checkins": 18,
			"location": {
				"city": "Oss",
				"country": "Netherlands",
				"latitude": 51.761593318599,
				"longitude": 5.5231294147254,
				"street": "Wethouder van Eschstraat 165"
			},
			"website": "http://www.pkn-oss.nl https://twitter.com/#!/Paaskerk_Oss"
		}
	},
	{
		"name": "Ontmoetingskerk Pijnacker",
		"facebook_url": "https://www.facebook.com/OntmoetingskerkPijnacker",
		"twitter_name": "",
		"facebook": {
			"graphUrl": "https://graph.facebook.com/OntmoetingskerkPijnacker",
			"id": "399663310107793",
			"likes": 54,
			"talking_about_count": 19,
			"were_here_count": 30,
			"checkins": 30,
			"location": {
				"city": "Pijnacker",
				"country": "Netherlands",
				"latitude": 52.012661,
				"longitude": 4.4431801,
				"street": "Klapwijkseweg 91",
				"zip": "2642 RA"
			},
			"website": "http://www.ontmoetingskerk-pijnacker.eu"
		},
		"website": "http://www.ontmoetingskerk-pijnacker.eu"
	},
	{
		"name": "Vrije Baptistengemeente Bethel",
		"facebook_url": "https://www.facebook.com/vbgbethel",
		"twitter_name": "@Bethel",
		"twitter": {
			"statuses_count": 4818,
			"followers_count": 1501,
			"friends_count": 66
		},
		"facebook": {
			"graphUrl": "https://graph.facebook.com/vbgbethel",
			"id": "293286710927",
			"likes": 1886,
			"talking_about_count": 198,
			"were_here_count": 2076,
			"checkins": 2076,
			"location": {
				"city": "Drachten",
				"country": "Netherlands",
				"latitude": 53.117693278355,
				"longitude": 6.0746107841869,
				"street": "De Bolder 75",
				"zip": "9206 AP"
			},
			"website": "http://www.bethel.nl"
		},
		"website": "http://www.bethel.nl"
	},
	{
		"name": "Christengemeente De Wingerd",
		"facebook_url": "https://www.facebook.com/cgdewingerd",
		"twitter_name": "@cgdewingerd",
		"twitter": {
			"statuses_count": 1077,
			"followers_count": 80,
			"friends_count": 36
		},
		"facebook": {
			"graphUrl": "https://graph.facebook.com/cgdewingerd",
			"id": "126376950776834",
			"likes": 134,
			"talking_about_count": 9,
			"were_here_count": 7,
			"checkins": 7,
			"location": {
				"city": "Varsseveld",
				"country": "Netherlands",
				"latitude": 51.943546624503,
				"longitude": 6.4628543100976,
				"street": "'t Borchuus, Kerkplein 3",
				"zip": "7051 CX"
			},
			"website": "http://www.cgdewingerd.nl"
		},
		"website": "http://www.cgdewingerd.nl"
	},
	{
		"name": "Kruiskerk-gemeente",
		"facebook_url": "https://www.facebook.com/Kruiskerkinfo",
		"twitter_name": "@Kruiskerkinfo",
		"twitter": {
			"statuses_count": 2478,
			"followers_count": 202,
			"friends_count": 15
		},
		"facebook": {
			"graphUrl": "https://graph.facebook.com/Kruiskerkinfo",
			"id": "196399117090830",
			"likes": 159,
			"talking_about_count": 18,
			"were_here_count": 42,
			"checkins": 42,
			"location": {
				"city": "Huizen",
				"country": "Netherlands",
				"latitude": 52.2971802,
				"longitude": 5.2268953,
				"street": "J. van Wassenaerstraat 1 (hoek Naarderstraat-Karel Doormanlaan)",
				"zip": "1272 BP"
			},
			"website": "http://kruiskerk.info"
		},
		"website": "http://kruiskerk.info"
	},
	{
		"name": "Jong en Vrij",
		"facebook_url": "https://www.facebook.com/jongenvrijnl",
		"twitter_name": "@jongenvrij",
		"twitter": {
			"statuses_count": 1647,
			"followers_count": 669,
			"friends_count": 49
		},
		"facebook": {
			"graphUrl": "https://graph.facebook.com/jongenvrijnl",
			"id": "113240012075632",
			"likes": 2082,
			"talking_about_count": 110,
			"website": "http://www.jongenvrij.nl"
		},
		"website": "http://www.jongenvrij.nl"
	},
	{
		"name": "Koningskerk Rotterdam",
		"facebook_url": "https://www.facebook.com/koningskerk",
		"twitter_name": "@KoningskerkRdam",
		"twitter": {
			"statuses_count": 498,
			"followers_count": 195,
			"friends_count": 85
		},
		"facebook": {
			"graphUrl": "https://graph.facebook.com/koningskerk",
			"id": "225253930845783",
			"likes": 187,
			"talking_about_count": 6,
			"were_here_count": 296,
			"checkins": 296,
			"location": {
				"city": "Rotterdam",
				"country": "Netherlands",
				"latitude": 51.911129,
				"longitude": 4.4973402,
				"street": "Stieltjesstraat 30",
				"zip": "3071 JX"
			},
			"website": "http://www.koningskerk.org"
		},
		"website": "http://www.koningskerk.org"
	},
	{
		"name": "Christengemeente Maaseik",
		"facebook_url": "https://www.facebook.com/cgmaaseik",
		"twitter_name": "",
		"facebook": {
			"graphUrl": "https://graph.facebook.com/cgmaaseik",
			"id": "1417424641803008",
			"likes": 65,
			"talking_about_count": 6,
			"location": {
				"city": "Maaseik",
				"country": "Belgium",
				"latitude": 51.0948105,
				"longitude": 5.7951198,
				"street": "Monseigneur Koningsstraat 8",
				"zip": "3680"
			},
			"website": "http://https://www.cgmaaseik.be/"
		},
		"website": "http://https://www.cgmaaseik.be/"
	},
	{
		"name": "Ontmoetingskerk Vriezenveen",
		"facebook_url": "https://www.facebook.com/OntmoetingskerkVriezenveen",
		"twitter_name": "",
		"facebook": {
			"graphUrl": "https://graph.facebook.com/OntmoetingskerkVriezenveen",
			"id": "264141600281551",
			"likes": 193,
			"talking_about_count": 96,
			"were_here_count": 183,
			"checkins": 183,
			"location": {
				"city": "Vriezenveen",
				"country": "Netherlands",
				"latitude": 52.408006525074,
				"longitude": 6.6243355553796,
				"street": "Schout Doddestraat 1",
				"zip": "7671 GT"
			},
			"website": "http://www.ontmoetingskerkvriezenveen.nl"
		},
		"website": "http://www.ontmoetingskerkvriezenveen.nl"
	},
	{
		"name": "Christengemeente Hardinxveld-Giessendam",
		"facebook_url": "https://www.facebook.com/ChristengemeenteHardinxveldGiessendam",
		"twitter_name": "@ChrGemHveldGdam",
		"twitter": {
			"statuses_count": 322,
			"followers_count": 75,
			"friends_count": 7
		},
		"facebook": {
			"graphUrl": "https://graph.facebook.com/ChristengemeenteHardinxveldGiessendam",
			"id": "233269330060257",
			"likes": 167,
			"talking_about_count": 12,
			"were_here_count": 25,
			"checkins": 25,
			"location": {
				"city": "Hardinxveld",
				"country": "Netherlands",
				"latitude": 51.82395489,
				"longitude": 4.8422781,
				"street": "Breedewaij 1a",
				"zip": "3371"
			},
			"website": "http://www.christengemeente.nl"
		},
		"website": "http://www.christengemeente.nl"
	},
	{
		"name": "Mijn Kerk",
		"facebook_url": "https://www.facebook.com/Mijnkerk",
		"twitter_name": "@mijnkerkNL",
		"twitter": {
			"statuses_count": 2305,
			"followers_count": 2196,
			"friends_count": 2014
		},
		"facebook": {
			"graphUrl": "https://graph.facebook.com/Mijnkerk",
			"id": "484647548235132",
			"likes": 3831,
			"talking_about_count": 241,
			"website": "http://www.mijnkerk.nl "
		},
		"website": "http://www.mijnkerk.nl "
	},
	{
		"name": "Gereformeerde kerk Enter",
		"facebook_url": "https://www.facebook.com/gkenter",
		"twitter_name": "@kerkenter",
		"twitter": {
			"statuses_count": 225,
			"followers_count": 264,
			"friends_count": 77
		},
		"facebook": {
			"graphUrl": "https://graph.facebook.com/gkenter",
			"id": "101950543246013",
			"likes": 342,
			"talking_about_count": 25,
			"were_here_count": 208,
			"checkins": 208,
			"location": {
				"city": "Enter",
				"country": "Netherlands",
				"latitude": 52.2945709,
				"longitude": 6.5745502,
				"street": "Rijssenseweg 13",
				"zip": "7468 AA"
			},
			"website": "http://www.gereformeerdekerkenter.nl"
		},
		"website": "http://www.gereformeerdekerkenter.nl"
	},
	{
		"name": "Koptisch Orthodoxe kerk Eindhoven",
		"facebook_url": "https://www.facebook.com/KoptischOrthodoxeKerkEindhoven",
		"twitter_name": "",
		"facebook": {
			"graphUrl": "https://graph.facebook.com/KoptischOrthodoxeKerkEindhoven",
			"id": "519236848096033",
			"likes": 2618,
			"talking_about_count": 107,
			"were_here_count": 173,
			"checkins": 173,
			"location": {
				"city": "Eindhoven",
				"country": "Netherlands",
				"latitude": 51.421262173167,
				"longitude": 5.49357862339,
				"street": "Alpenroosstraat 11",
				"zip": "5644 EJ"
			},
			"website": "http://www.koptischekerkeindhoven.nl"
		},
		"website": "http://www.koptischekerkeindhoven.nl"
	},
	{
		"name": "LEEF! Doetinchem",
		"facebook_url": "https://www.facebook.com/LeefDoetinchem",
		"twitter_name": "@LEEFDoetinchem",
		"twitter": {
			"statuses_count": 88,
			"followers_count": 18,
			"friends_count": 8
		},
		"facebook": {
			"graphUrl": "https://graph.facebook.com/LeefDoetinchem",
			"id": "343139999069499",
			"likes": 348,
			"talking_about_count": 26,
			"were_here_count": 121,
			"checkins": 121,
			"location": {
				"city": "Doetinchem",
				"country": "Netherlands",
				"latitude": 51.9659615,
				"longitude": 6.3021302,
				"street": "Varsseveldseweg 104-106",
				"zip": "7003 AA"
			},
			"website": "http://www.leef-doetinchem.nl"
		},
		"website": "http://www.leef-doetinchem.nl"
	},
	{
		"name": "Kerk van de Nazarener Haarlem",
		"facebook_url": "https://www.facebook.com/NazarenerHlem",
		"twitter_name": "@NazarenerHlem",
		"twitter": {
			"statuses_count": 168,
			"followers_count": 69
		},
		"facebook": {
			"graphUrl": "https://graph.facebook.com/NazarenerHlem",
			"id": "251985138193875",
			"likes": 260,
			"talking_about_count": 1,
			"were_here_count": 10,
			"checkins": 10,
			"location": {
				"city": "Haarlem",
				"country": "Netherlands",
				"latitude": 52.3865891,
				"longitude": 4.61588,
				"street": "Zijlweg 218",
				"zip": "2015 CK"
			},
			"website": "http://www.kvdnhaarlem.nl"
		},
		"website": "http://www.kvdnhaarlem.nl"
	},
	{
		"name": "Hillsong Amsterdam",
		"facebook_url": "https://www.facebook.com/HillsongAmsterdam",
		"twitter_name": "@hillsongams",
		"twitter": {
			"statuses_count": 647,
			"followers_count": 5977,
			"friends_count": 32
		},
		"facebook": {
			"graphUrl": "https://graph.facebook.com/HillsongAmsterdam",
			"id": "106632822794682",
			"likes": 9893,
			"talking_about_count": 507,
			"were_here_count": 1743,
			"checkins": 1743,
			"location": {
				"city": "Amsterdam",
				"country": "Netherlands",
				"latitude": 52.366337576939,
				"longitude": 4.8967727163057,
				"street": "Rembrandtplein 11",
				"zip": "1017 CT"
			},
			"website": "http://www.hillsong.com/amsterdam"
		},
		"website": "http://www.hillsong.com/amsterdam"
	},
	{
		"name": "Crossroads Amsterdam",
		"facebook_url": "https://www.facebook.com/crossroadsamsterdam",
		"twitter_name": "@xrdsamsterdam",
		"twitter": {
			"statuses_count": 773,
			"followers_count": 606,
			"friends_count": 9
		},
		"facebook": {
			"graphUrl": "https://graph.facebook.com/crossroadsamsterdam",
			"id": "250968861596595",
			"likes": 1543,
			"talking_about_count": 24,
			"checkins": 699,
			"location": {
				"city": "Amstelveen",
				"country": "Netherlands",
				"latitude": 52.290198742907,
				"longitude": 4.8506561062795,
				"street": "Buitenplein 55",
				"zip": "1187 XR"
			},
			"website": "http://www.xrds.nl"
		},
		"website": "http://www.xrds.nl"
	},
	{
		"name": "De Maagd Maria Kerk Amsterdam",
		"facebook_url": "https://www.facebook.com/mariakerk",
		"twitter_name": "",
		"facebook": {
			"graphUrl": "https://graph.facebook.com/mariakerk",
			"id": "309928182409193",
			"likes": 3586,
			"talking_about_count": 76,
			"were_here_count": 712,
			"checkins": 712,
			"location": {
				"city": "Amsterdam",
				"country": "Netherlands",
				"latitude": 52.3931694,
				"longitude": 4.91328,
				"street": "Mosstraat  2",
				"zip": "1032 JW"
			},
			"website": "http://www."
		},
		"website": "http://www."
	},
	{
		"name": "City Life Church Den Haag",
		"facebook_url": "https://www.facebook.com/clcdenhaag",
		"twitter_name": "@CLCDenHaag",
		"twitter": {
			"statuses_count": 1603,
			"followers_count": 862,
			"friends_count": 154
		},
		"facebook": {
			"graphUrl": "https://graph.facebook.com/clcdenhaag",
			"id": "137850586233695",
			"likes": 2239,
			"talking_about_count": 87,
			"were_here_count": 5781,
			"checkins": 5781,
			"location": {
				"city": "The Hague",
				"country": "Netherlands",
				"latitude": 52.0627594,
				"longitude": 4.2725,
				"street": "Escamplaan 280",
				"zip": "2547 GP"
			},
			"website": "http://www.clcdenhaag.nl"
		},
		"website": "http://www.clcdenhaag.nl"
	},
	{
		"name": "Evangelische Kerk Jefta",
		"facebook_url": "https://www.facebook.com/evangelischekerkjefta",
		"twitter_name": "",
		"facebook": {
			"graphUrl": "https://graph.facebook.com/evangelischekerkjefta",
			"id": "156184131096088",
			"likes": 146,
			"were_here_count": 90,
			"checkins": 90,
			"location": {
				"city": "Breda",
				"country": "Netherlands",
				"latitude": 51.6156502,
				"longitude": 4.7303901,
				"street": "Graaf Englebrecht college, Ganzerik 3",
				"zip": "4822 RK"
			},
			"website": "http://www.jefta.org"
		},
		"website": "http://www.jefta.org"
	},
	{
		"name": "Christ Worship Centre",
		"facebook_url": "https://www.facebook.com/pages/Christ-Worship-Centre/143016309096549",
		"twitter_name": "",
		"facebook": {
			"graphUrl": "https://graph.facebook.com/143016309096549",
			"id": "143016309096549",
			"likes": 145,
			"talking_about_count": 11,
			"were_here_count": 85,
			"checkins": 85,
			"location": {
				"city": "Amsterdam",
				"country": "Netherlands",
				"latitude": 52.3946114,
				"longitude": 4.9088001,
				"street": "Witbolstraat 9",
				"zip": "1032 LC"
			},
			"website": "http://www.christworshipcentre.com"
		},
		"website": "http://www.christworshipcentre.com"
	},
	{
		"name": "Thousand Hills",
		"facebook_url": "https://www.facebook.com/thousandhills",
		"twitter_name": "@thousand_hills",
		"twitter": {
			"statuses_count": 2248,
			"followers_count": 517,
			"friends_count": 425
		},
		"facebook": {
			"graphUrl": "https://graph.facebook.com/thousandhills",
			"id": "88656582656",
			"likes": 2593,
			"talking_about_count": 44,
			"were_here_count": 1874,
			"checkins": 1874,
			"location": {
				"city": "Hilversum",
				"country": "Netherlands",
				"latitude": 52.2155113,
				"longitude": 5.1710801,
				"street": "Neuweg 148",
				"zip": "1214 HA"
			},
			"website": "http://www.thousandhills.cc"
		},
		"website": "http://www.thousandhills.cc"
	},
	{
		"name": "New Life Rotterdam - kerk",
		"facebook_url": "https://www.facebook.com/newlife010",
		"twitter_name": "@newlife010",
		"twitter": {
			"statuses_count": 743,
			"followers_count": 193,
			"friends_count": 220
		},
		"facebook": {
			"graphUrl": "https://graph.facebook.com/newlife010",
			"id": "251809472094",
			"likes": 110,
			"were_here_count": 42,
			"checkins": 42,
			"location": {
				"city": "Rotterdam",
				"country": "Netherlands",
				"latitude": 51.913281623878,
				"longitude": 4.4441990142352,
				"street": "Bruijnstraat 16",
				"zip": "3026 VD"
			},
			"website": "http://www.newlife010.nl"
		},
		"website": "http://www.newlife010.nl"
	},
	{
		"name": "Vrije Baptistengemeente Groningen",
		"facebook_url": "https://www.facebook.com/vbgroningen",
		"twitter_name": "@VBGroningen",
		"twitter": {
			"statuses_count": 1535,
			"followers_count": 842,
			"friends_count": 547
		},
		"facebook": {
			"graphUrl": "https://graph.facebook.com/vbgroningen",
			"id": "117169972216",
			"likes": 1059,
			"talking_about_count": 82,
			"were_here_count": 422,
			"checkins": 422,
			"location": {
				"city": "Groningen",
				"country": "Netherlands",
				"latitude": 53.23139494125,
				"longitude": 6.5309103484511,
				"street": "Friesestraatweg 221",
				"zip": "9743AE"
			},
			"website": "http://www.vbgroningen.nl/"
		},
		"website": "http://www.vbgroningen.nl/"
	},
	{
		"name": "Christelijke gereformeerde kerk Zwolle",
		"facebook_url": "https://www.facebook.com/CGKZwolle",
		"twitter_name": "@CGKZwolle",
		"twitter": {
			"statuses_count": 962,
			"followers_count": 1016,
			"friends_count": 127
		},
		"facebook": {
			"graphUrl": "https://graph.facebook.com/CGKZwolle",
			"id": "195170248809",
			"likes": 440,
			"talking_about_count": 93,
			"were_here_count": 35,
			"checkins": 35,
			"location": {
				"city": "Zwolle",
				"country": "Netherlands",
				"latitude": 52.5148087,
				"longitude": 6.0964999,
				"street": "Thorbeckegracht 37",
				"zip": "8011 VN"
			},
			"website": "http://www.cgkzwolle.nl"
		},
		"website": "http://www.cgkzwolle.nl"
	},
	{
		"name": "Hervormd Barneveld",
		"facebook_url": "https://www.facebook.com/HervormdBarneveld",
		"twitter_name": "@hervbvld",
		"website": "http://www.hervormdbarneveld.nl/",
		"twitter": {
			"statuses_count": 5387,
			"followers_count": 482,
			"friends_count": 407
		},
		"facebook": {
			"graphUrl": "https://graph.facebook.com/HervormdBarneveld",
			"id": "279558128818311",
			"likes": 639,
			"talking_about_count": 93,
			"location": {
				"city": "Barneveld",
				"country": "Netherlands"
			},
			"website": "http://www.hervormdbarneveld.nl"
		}
	},
	{
		"name": "VEG Oldebroek",
		"facebook_url": "https://www.facebook.com/vegoldebroek",
		"twitter_name": "",
		"website": "http://www.vegoldebroek.nl/",
		"facebook": {
			"graphUrl": "https://graph.facebook.com/vegoldebroek",
			"id": "177798955579273",
			"likes": 318,
			"talking_about_count": 18,
			"were_here_count": 73,
			"checkins": 73,
			"location": {
				"city": "Oldebroek",
				"country": "Netherlands",
				"latitude": 52.452763817394,
				"longitude": 5.9128829071216,
				"street": "Zuiderzeestraatweg 226-2",
				"zip": "8096 CH"
			},
			"website": "http://www.vegoldebroek.nl"
		}
	},
	{
		"name": "Baptistengemeente Katwijk",
		"facebook_url": "https://www.facebook.com/BaptistengemeenteKatwijk",
		"twitter_name": "@BaptistKatwijk",
		"twitter": {
			"statuses_count": 342,
			"followers_count": 154
		},
		"facebook": {
			"graphUrl": "https://graph.facebook.com/BaptistengemeenteKatwijk",
			"id": "179065228843305",
			"likes": 362,
			"talking_about_count": 4,
			"checkins": 144,
			"location": {
				"city": "Katwijk",
				"country": "Netherlands",
				"latitude": 52.206557549139,
				"longitude": 4.4116657498972,
				"street": "Groen van Prinstererweg 1",
				"zip": "2221 AA"
			},
			"website": "http://baptistenkatwijk.nl"
		},
		"website": "http://baptistenkatwijk.nl"
	},
	{
		"name": "Christengemeente Lachai-Roï",
		"facebook_url": "https://www.facebook.com/CGLachaiRoi",
		"twitter_name": "@CGLachaiRoi",
		"twitter": {
			"statuses_count": 453,
			"followers_count": 70,
			"friends_count": 116
		},
		"facebook": {
			"graphUrl": "https://graph.facebook.com/CGLachaiRoi",
			"id": "400354063378166",
			"likes": 284,
			"talking_about_count": 49,
			"were_here_count": 197,
			"checkins": 197,
			"location": {
				"city": "Sommelsdijk",
				"country": "Netherlands",
				"latitude": 51.750025245077,
				"longitude": 4.1568970472015,
				"street": "Olympiaweg 32",
				"zip": "3245 DL"
			},
			"website": "http://www.lachai-roi.nl/"
		},
		"website": "http://www.lachai-roi.nl/"
	},
	{
		"name": "NGK Doetinchem Velp",
		"facebook_url": "https://www.facebook.com/pages/NGK-Doetinchem-Velp/232334370125233",
		"twitter_name": "",
		"facebook": {
			"graphUrl": "https://graph.facebook.com/232334370125233",
			"id": "232334370125233",
			"likes": 126,
			"talking_about_count": 44,
			"were_here_count": 19,
			"checkins": 19,
			"location": {
				"city": "Doetinchem",
				"country": "Netherlands",
				"latitude": 51.9711418,
				"longitude": 6.2982202,
				"street": "Bilderdijkstraat 3",
				"zip": "7009 JL"
			},
			"website": "http://www.ngkdoetinchem.nl"
		},
		"website": "http://www.ngkdoetinchem.nl"
	},
	{
		"name": "Rafael Amersfoort",
		"facebook_url": "https://www.facebook.com/rafaelamersfoort",
		"twitter_name": "@rafaelafoort",
		"twitter": {
			"statuses_count": 50,
			"followers_count": 65,
			"friends_count": 16
		},
		"facebook": {
			"graphUrl": "https://graph.facebook.com/rafaelamersfoort",
			"id": "134144006628876",
			"likes": 543,
			"talking_about_count": 71,
			"were_here_count": 798,
			"checkins": 798,
			"location": {
				"city": "Amersfoort",
				"country": "Netherlands",
				"latitude": 52.1966591,
				"longitude": 5.38976,
				"street": "Kosmonaut 2",
				"zip": "3824 MK"
			},
			"website": "http://www.rafaelamersfoort.nl"
		},
		"website": "http://www.rafaelamersfoort.nl"
	},
	{
		"name": "Koepelkerk Arnhem",
		"facebook_url": "https://www.facebook.com/koepelkerkarnhem",
		"twitter_name": "@KoepelkerkArnh",
		"twitter": {
			"statuses_count": 1,
			"followers_count": 47,
			"friends_count": 2
		},
		"facebook": {
			"graphUrl": "https://graph.facebook.com/koepelkerkarnhem",
			"id": "294522140639079",
			"likes": 304,
			"talking_about_count": 3,
			"website": "http://www.koepelkerkarnhem.nl"
		},
		"website": "http://www.koepelkerkarnhem.nl"
	},
	{
		"name": "Pinkstergemeente Agapé",
		"facebook_url": "https://www.facebook.com/agapeamsterdam",
		"twitter_name": "",
		"facebook": {
			"graphUrl": "https://graph.facebook.com/agapeamsterdam",
			"id": "373749475739",
			"likes": 457,
			"talking_about_count": 6,
			"were_here_count": 634,
			"checkins": 634,
			"location": {
				"city": "Amsterdam",
				"country": "Netherlands",
				"latitude": 52.4150391,
				"longitude": 4.89292,
				"street": "Kometensingel 58",
				"zip": "1033BW"
			},
			"website": "http://www.agapeamsterdam.nl"
		},
		"website": "http://www.agapeamsterdam.nl"
	},
	{
		"name": "Doorbrekers",
		"facebook_url": "https://www.facebook.com/DoorBrekers",
		"twitter_name": "@DoorBrekers",
		"twitter": {
			"statuses_count": 677,
			"followers_count": 1164,
			"friends_count": 6
		},
		"facebook": {
			"graphUrl": "https://graph.facebook.com/DoorBrekers",
			"id": "138279382864577",
			"likes": 2370,
			"talking_about_count": 301,
			"were_here_count": 1559,
			"checkins": 1559,
			"location": {
				"city": "Barneveld",
				"country": "Netherlands",
				"latitude": 52.142504637863,
				"longitude": 5.5853643354466,
				"street": "Burgemeester Kuntzelaan 25",
				"zip": "3771 EP"
			},
			"website": "http://www.doorbrekers.nl"
		},
		"website": "http://www.doorbrekers.nl"
	},
	{
		"name": "Westland Netwerk",
		"facebook_url": "https://www.facebook.com/westlandnetwerk",
		"twitter_name": "",
		"facebook": {
			"graphUrl": "https://graph.facebook.com/westlandnetwerk",
			"id": "141635765905039",
			"likes": 311,
			"website": "http://www.westland-netwerk.nl"
		},
		"website": "http://www.westland-netwerk.nl"
	},
	{
		"name": "Vineyard Amsterdam",
		"facebook_url": "https://www.facebook.com/pages/Vineyard-Amsterdam/128574734098",
		"twitter_name": "@VineyardA_dam",
		"twitter": {
			"statuses_count": 750,
			"followers_count": 919,
			"friends_count": 598
		},
		"facebook": {
			"graphUrl": "https://graph.facebook.com/128574734098",
			"id": "128574734098",
			"likes": 1363,
			"talking_about_count": 28,
			"were_here_count": 61,
			"checkins": 61,
			"location": {
				"city": "Amsterdam",
				"country": "Netherlands",
				"latitude": 52.3703117,
				"longitude": 4.9000201,
				"street": "Our 11:00 Meeting Point on Sunday is at Zuiderkerkhof 72"
			},
			"website": "http://www.VineyardAmsterdam.nl"
		},
		"website": "http://www.VineyardAmsterdam.nl"
	},
	{
		"name": "GKV Gorinchem",
		"facebook_url": "https://www.facebook.com/GKvGorinchem",
		"twitter_name": "@gkvgorinchem",
		"twitter": {
			"statuses_count": 69,
			"followers_count": 205,
			"friends_count": 13
		},
		"facebook": {
			"graphUrl": "https://graph.facebook.com/GKvGorinchem",
			"id": "198210630258137",
			"likes": 97,
			"were_here_count": 44,
			"checkins": 44,
			"location": {
				"city": "Gorinchem",
				"country": "Netherlands",
				"latitude": 51.827762160955,
				"longitude": 4.9788078094533,
				"street": "Kalkhaven 25",
				"zip": "4201 BA"
			},
			"website": "http://gkvgorinchem.nl/"
		},
		"website": "http://gkvgorinchem.nl/"
	},
	{
		"name": "Kerk van de Nazarener - Amersfoort",
		"facebook_url": "https://www.facebook.com/pages/Kerk-van-de-Nazarener-Amersfoort/122890037726628",
		"twitter_name": "",
		"facebook": {
			"graphUrl": "https://graph.facebook.com/122890037726628",
			"id": "122890037726628",
			"likes": 186,
			"talking_about_count": 3,
			"were_here_count": 21,
			"checkins": 21,
			"location": {
				"city": "Amersfoort",
				"country": "Netherlands",
				"latitude": 52.1450119,
				"longitude": 5.3970699,
				"street": "Lambert Heijnricsstraart 23",
				"zip": "3817 ER"
			},
			"website": "http://www.amersfoort.nazarener.nl/"
		},
		"website": "http://www.amersfoort.nazarener.nl/"
	},
	{
		"name": "COME Zelhem",
		"facebook_url": "https://www.facebook.com/comezelhem",
		"twitter_name": "@comezelhem",
		"twitter": {
			"statuses_count": 629,
			"followers_count": 103,
			"friends_count": 110
		},
		"facebook": {
			"graphUrl": "https://graph.facebook.com/comezelhem",
			"id": "201342416544981",
			"likes": 142,
			"talking_about_count": 12,
			"website": "http://www.come-zelhem.nl/"
		},
		"website": "http://www.come-zelhem.nl/"
	},
	{
		"name": "Morgenstond Delft",
		"facebook_url": "https://www.facebook.com/groups/148502305195044/",
		"twitter_name": "@egmdelft",
		"website": "http://morgenstonddelft.nl/",
		"twitter": {
			"statuses_count": 376,
			"followers_count": 138,
			"friends_count": 146
		},
		"facebook": {
			"graphUrl": "https://graph.facebook.com/148502305195044",
			"id": "148502305195044"
		}
	},
	{
		"name": "Noordlicht Wezep",
		"facebook_url": "",
		"twitter_name": "@gkvwezep",
		"website": "http://www.gkvwezep.nl/",
		"twitter": {
			"statuses_count": 653,
			"followers_count": 107,
			"friends_count": 8
		}
	},
	{
		"name": "Binnenstad-Vrijenban (Hervormd Delft)",
		"facebook_url": "https://www.facebook.com/pages/Binnenstad-Vrijenban/395309503836943",
		"twitter_name": "",
		"website": "http://www.binnenstad-vrijenban.nl",
		"facebook": {
			"graphUrl": "https://graph.facebook.com/395309503836943",
			"id": "395309503836943",
			"likes": 57,
			"were_here_count": 22,
			"checkins": 22,
			"location": {
				"city": "Delft",
				"country": "Netherlands",
				"latitude": 52.0216217,
				"longitude": 4.35532,
				"street": "Floresstraat 2"
			},
			"website": "http://www.binnenstad-Vrijenban.nl"
		}
	},
	{
		"name": "Levend Water Delft",
		"facebook_url": "https://www.facebook.com/pages/Levend-Water-Delft-ENGnl/279322932115695",
		"twitter_name": "@levendwaterNL",
		"website": "http://www.levendwater.nl/",
		"twitter": {
			"statuses_count": 118,
			"followers_count": 64,
			"friends_count": 24
		},
		"facebook": {
			"graphUrl": "https://graph.facebook.com/279322932115695",
			"id": "279322932115695",
			"likes": 43,
			"were_here_count": 108,
			"checkins": 108,
			"location": {
				"city": "Delft",
				"country": "Netherlands",
				"latitude": 51.9986,
				"longitude": 4.35639,
				"street": "Hermesstraat 65",
				"zip": "2624 BG"
			},
			"website": "http://www.levendwater.nl/en"
		}
	},
	{
		"name": "Hervormde gemeente Woudrichem",
		"facebook_url": "https://www.facebook.com/KerkWoudrichem",
		"twitter_name": "",
		"website": "http://www.hervormdegemeentewoudrichem.nl/",
		"facebook": {
			"graphUrl": "https://graph.facebook.com/KerkWoudrichem",
			"id": "330480947025856",
			"likes": 106,
			"were_here_count": 85,
			"checkins": 85,
			"location": {
				"city": "Woudrichem",
				"country": "Netherlands",
				"latitude": 51.816391,
				"longitude": 5.0030599,
				"street": "Kerkstraat 35",
				"zip": "4285 BA"
			},
			"website": "http://www.hervormdegemeentewoudrichem.nl"
		}
	},
	{
		"name": "Gereformeerde kerk Bunschoten Spakenburg",
		"facebook_url": "https://www.facebook.com/pages/Gereformeerde-kerk-Bunschoten-Spakenburg/280158508701206",
		"twitter_name": "@GKBSonline",
		"website": "http://www.gkbs.nl/",
		"twitter": {
			"statuses_count": 142,
			"followers_count": 298,
			"friends_count": 3
		},
		"facebook": {
			"graphUrl": "https://graph.facebook.com/280158508701206",
			"id": "280158508701206",
			"likes": 425,
			"talking_about_count": 52,
			"location": {
				"city": "Bunschoten",
				"country": "Netherlands",
				"zip": "3752"
			},
			"website": "http://www.gkbs.nl"
		}
	},
	{
		"name": "Gereformeerde Kerk Urk (PKN)",
		"facebook_url": "https://www.facebook.com/GereformeerdeKerkUrk",
		"twitter_name": "@gkupkn",
		"website": "http://gku-pkn.nl",
		"twitter": {
			"statuses_count": 1648,
			"followers_count": 1041,
			"friends_count": 54
		},
		"facebook": {
			"graphUrl": "https://graph.facebook.com/GereformeerdeKerkUrk",
			"id": "159865130740611",
			"likes": 436,
			"talking_about_count": 8,
			"were_here_count": 31,
			"checkins": 31,
			"location": {
				"city": "Urk",
				"country": "Netherlands",
				"latitude": 52.6668205,
				"longitude": 5.60883,
				"street": "Lange Dam 52",
				"zip": "8321 XS"
			},
			"website": "http://www.gku-pkn.nl"
		}
	},
	{
		"name": "Grote Kerk Maassluis",
		"facebook_url": "",
		"twitter_name": "@GKMaassluis",
		"website": "http://www.pknmaassluis.nl/grootekerk/",
		"twitter": {
			"statuses_count": 124,
			"followers_count": 108,
			"friends_count": 21
		}
	},
	{
		"name": "Marcuskerk Den Haag",
		"facebook_url": "https://www.facebook.com/marcuskerk",
		"twitter_name": "@Marcuskerk",
		"website": "http://www.marcuskerk-denhaag.nl/",
		"twitter": {
			"statuses_count": 23,
			"followers_count": 53,
			"friends_count": 13
		},
		"facebook": {
			"graphUrl": "https://graph.facebook.com/marcuskerk",
			"id": "503837436377686",
			"likes": 140,
			"talking_about_count": 9,
			"were_here_count": 1514,
			"checkins": 1514,
			"location": {
				"city": "The Hague",
				"country": "Netherlands",
				"latitude": 52.0512619,
				"longitude": 4.2957001,
				"street": "Jan Luykenlaan 92",
				"zip": "2533 JT"
			},
			"website": "http://www.marcuskerk-denhaag.nl"
		}
	},
	{
		"name": "Protestantse Gemeente Leidschendam",
		"facebook_url": "https://www.facebook.com/pages/Protestantse-Gemeente-Leidschendam/164100007084804",
		"twitter_name": "@Leidraad_",
		"website": "http://www.pgleidschendam.nl/",
		"twitter": {
			"statuses_count": 15,
			"followers_count": 27,
			"friends_count": 1
		},
		"facebook": {
			"graphUrl": "https://graph.facebook.com/164100007084804",
			"id": "164100007084804",
			"likes": 121,
			"location": {
				"city": "Leidschendam-Voorburg",
				"country": "Netherlands"
			},
			"website": "http://www.pgleidschendam.nl/"
		}
	},
	{
		"name": "Evangelisch-Lutherse Kerk Haarlem",
		"facebook_url": "https://www.facebook.com/luthersekerkhaarlem",
		"twitter_name": "@ELGHaarlem",
		"website": "http://www.luthersekerkhaarlem.nl/",
		"twitter": {
			"statuses_count": 1872,
			"followers_count": 414,
			"friends_count": 286
		},
		"facebook": {
			"graphUrl": "https://graph.facebook.com/luthersekerkhaarlem",
			"id": "156092701224264",
			"likes": 71,
			"website": "http://www.luthersekerkhaarlem.nl"
		}
	},
	{
		"name": "Nieuwe kerk Groningen",
		"facebook_url": "https://www.facebook.com/pages/Nieuwe-Kerk-Groningen/213806181966671",
		"twitter_name": "@NwKrkGrnngn",
		"website": "http://www.nieuwekerk.org",
		"twitter": {
			"statuses_count": 1810,
			"followers_count": 304,
			"friends_count": 208
		},
		"facebook": {
			"graphUrl": "https://graph.facebook.com/213806181966671",
			"id": "213806181966671",
			"likes": 148,
			"talking_about_count": 8,
			"checkins": 238,
			"location": {
				"city": "Groningen",
				"country": "Netherlands",
				"street": "Nieuwe Kerkhof 1",
				"zip": "9712 PT"
			},
			"website": "http://www.nieuwekerk.org"
		}
	},
	{
		"name": "Hervormde Gemeente Nieuw-Vennep",
		"facebook_url": "https://www.facebook.com/WitteKerk",
		"twitter_name": "@WitteKerk",
		"website": "http://www.wittekerk.nl/",
		"twitter": {
			"statuses_count": 925,
			"followers_count": 200,
			"friends_count": 183
		},
		"facebook": {
			"graphUrl": "https://graph.facebook.com/WitteKerk",
			"id": "192399067555910",
			"likes": 177,
			"talking_about_count": 28,
			"were_here_count": 157,
			"checkins": 157,
			"location": {
				"city": "Nieuw-Vennep",
				"country": "Netherlands",
				"latitude": 52.2647018,
				"longitude": 4.6353402,
				"street": "Hoofdweg 1318",
				"zip": "2153 LS"
			},
			"website": "http://www.wittekerk.nl"
		}
	},
	{
		"name": "Hervormde Kerk Kapelle",
		"facebook_url": "",
		"twitter_name": "@HervKerkKapelle",
		"website": "http://hervormdekerk-kapelle.nl",
		"twitter": {
			"statuses_count": 589,
			"followers_count": 219,
			"friends_count": 111
		}
	},
	{
		"name": "GkV Het Kompas Zoetermeer",
		"facebook_url": "https://www.facebook.com/KompasZoetermeer",
		"twitter_name": "@KompasZmeer",
		"website": "http://www.kompaszoetermeer.nl/",
		"twitter": {
			"statuses_count": 829,
			"followers_count": 320,
			"friends_count": 418
		},
		"facebook": {
			"graphUrl": "https://graph.facebook.com/KompasZoetermeer",
			"id": "264449630259413",
			"likes": 149,
			"talking_about_count": 3,
			"were_here_count": 34,
			"checkins": 34,
			"location": {
				"city": "Zoetermeer",
				"country": "Netherlands",
				"latitude": 52.0507813,
				"longitude": 4.4998798,
				"street": "Piet Heinplein 13",
				"zip": "2712 KC"
			},
			"website": "http://www.kompaszoetermeer.nl"
		}
	},
	{
		"name": "Hervormde Gemeente Maranatha - Nieuw-Lekkerland",
		"facebook_url": "https://www.facebook.com/kerkmaranatha",
		"twitter_name": "@KerkMaranatha",
		"website": "http://www.hervormdegemeentemaranatha.nl/",
		"twitter": {
			"statuses_count": 1195,
			"followers_count": 262,
			"friends_count": 168
		},
		"facebook": {
			"graphUrl": "https://graph.facebook.com/kerkmaranatha",
			"id": "190751350962817",
			"likes": 140,
			"talking_about_count": 8,
			"were_here_count": 112,
			"checkins": 112,
			"location": {
				"city": "Nieuw-Lekkerland",
				"country": "Netherlands",
				"latitude": 51.8869514,
				"longitude": 4.6805201,
				"street": "Mattenbies 1",
				"zip": "2957 RJ"
			},
			"website": "http://https://www.hervormdegemeentemaranatha.nl"
		}
	},
	{
		"name": "Grote of St. Bavokerk - Haarlem",
		"facebook_url": "",
		"twitter_name": "@BavoKerk",
		"website": "http://www.bavo.nl/",
		"twitter": {
			"statuses_count": 737,
			"followers_count": 270,
			"friends_count": 83
		}
	},
	{
		"name": "Hervormde wijkgemeente Kralingen West",
		"facebook_url": "https://www.facebook.com/pages/Hervormde-wijkgemeente-Kralingen-West/191896124218124",
		"twitter_name": "@KralingenWest",
		"website": "http://www.hervormdkralingenwest.nl/",
		"twitter": {
			"statuses_count": 264,
			"followers_count": 118,
			"friends_count": 32
		},
		"facebook": {
			"graphUrl": "https://graph.facebook.com/191896124218124",
			"id": "191896124218124",
			"likes": 57,
			"website": "http://www.hervormdkralingenwest.nl"
		}
	},
	{
		"name": "Hervormd Vriezeveen",
		"facebook_url": "https://www.facebook.com/hervormd",
		"twitter_name": "",
		"website": "http://hervormdvriezenveen.nl/",
		"facebook": {
			"graphUrl": "https://graph.facebook.com/hervormd",
			"id": "221840291277611",
			"likes": 509,
			"talking_about_count": 34,
			"were_here_count": 50,
			"checkins": 50,
			"location": {
				"city": "Vriezenveen",
				"country": "Netherlands",
				"latitude": 52.4118004,
				"longitude": 6.6261053,
				"street": "Westeinde 39",
				"zip": "7671 EK"
			},
			"website": "http://hervormdvriezenveen.nl/"
		}
	},
	{
		"name": "Hervormde gemeente te Sprang",
		"facebook_url": "https://www.facebook.com/hervormdsprang",
		"twitter_name": "",
		"website": "http://www.hervormd-sprang.nl/",
		"facebook": {
			"graphUrl": "https://graph.facebook.com/hervormdsprang",
			"id": "198797486811946",
			"likes": 209,
			"talking_about_count": 17,
			"were_here_count": 90,
			"checkins": 90,
			"location": {
				"city": "Sprang-Capelle",
				"country": "Netherlands",
				"latitude": 51.6699409,
				"longitude": 5.0501499,
				"street": "Kerkstraat 34",
				"zip": "5161 ED"
			},
			"website": "http://www.hervormd-sprang.nl"
		}
	},
	{
		"name": "Hervormd Vreeswijk",
		"facebook_url": "https://www.facebook.com/pages/Hervormd-Vreeswijk/201841393162857",
		"twitter_name": "",
		"website": "http://www.hervormdvreeswijk.nl/",
		"facebook": {
			"graphUrl": "https://graph.facebook.com/201841393162857",
			"id": "201841393162857",
			"likes": 124,
			"talking_about_count": 4,
			"were_here_count": 11,
			"checkins": 11,
			"location": {
				"city": "Nieuwegein",
				"country": "Netherlands",
				"latitude": 52.0038681,
				"longitude": 5.0941601,
				"street": "Dorpsstraat 53",
				"zip": "3433 CM"
			},
			"website": "http://www.hervormdvreeswijk.nl/"
		}
	},
	{
		"name": "Rafael Almere",
		"facebook_url": "http://www.facebook.com/rafaelalmere",
		"twitter_name": "",
		"website": "http://www.rafaelalmere.nl/",
		"facebook": {
			"graphUrl": "https://graph.facebook.com/rafaelalmere",
			"id": "166946843366785",
			"likes": 65,
			"talking_about_count": 5,
			"were_here_count": 36,
			"checkins": 36,
			"location": {
				"city": "Almere-Stad",
				"country": "Netherlands",
				"latitude": 52.359744956059,
				"longitude": 5.2044431878035,
				"street": "'s Hertogenboschplein 1",
				"zip": "1325WB"
			},
			"website": "http://www.rafaelalmere.nl"
		}
	},
	{
		"name": "CrossPoint",
		"facebook_url": "https://www.facebook.com/crosspointgetsewoud",
		"twitter_name": "",
		"website": "http://crosspointgetsewoud.nl/",
		"facebook": {
			"graphUrl": "https://graph.facebook.com/crosspointgetsewoud",
			"id": "171611036265221",
			"likes": 304,
			"talking_about_count": 1,
			"location": {
				"city": "Nieuw-Vennep",
				"country": "Netherlands"
			},
			"website": "http://www.crosspointgetsewoud.nl"
		}
	},
	{
		"name": "Protestantse gemeente Harderwijk",
		"facebook_url": "https://www.facebook.com/PGHarderwijk",
		"twitter_name": "@PGHarderwijk",
		"website": "http://www.pgharderwijk.nl/",
		"twitter": {
			"statuses_count": 652,
			"followers_count": 181,
			"friends_count": 229
		},
		"facebook": {
			"graphUrl": "https://graph.facebook.com/PGHarderwijk",
			"id": "455315841201525",
			"likes": 311,
			"talking_about_count": 8,
			"location": {
				"city": "Harderwijk",
				"country": "Netherlands"
			},
			"website": "http://www.pgharderwijk.nl"
		}
	},
	{
		"name": "Protestantse Gemeente Barneveld",
		"facebook_url": "https://www.facebook.com/Pgbarneveld",
		"twitter_name": "",
		"website": "http://www.pgbarneveld.nl/",
		"facebook": {
			"graphUrl": "https://graph.facebook.com/Pgbarneveld",
			"id": "539645659444030",
			"likes": 148,
			"website": "http://www.pgbarneveld.nl"
		}
	},
	{
		"name": "Hervormde gemeenten Ilpendam en Watergang",
		"facebook_url": "https://www.facebook.com/HervormdeGemeenteIlpendamEnWatergang",
		"twitter_name": "",
		"website": "http://www.kerkiw.nl",
		"facebook": {
			"graphUrl": "https://graph.facebook.com/HervormdeGemeenteIlpendamEnWatergang",
			"id": "161027087351377",
			"likes": 35,
			"website": "http://www.kerkiw.nl"
		}
	},
	{
		"name": "PKN Wijkgemeente in Zeist-Noord",
		"facebook_url": "https://www.facebook.com/noorderlichtzeist",
		"twitter_name": "",
		"website": "http://www.noorderlichtgemeente.nl/",
		"facebook": {
			"graphUrl": "https://graph.facebook.com/noorderlichtzeist",
			"id": "198732200143344",
			"likes": 185,
			"talking_about_count": 52,
			"were_here_count": 543,
			"checkins": 543,
			"location": {
				"city": "Zeist",
				"country": "Netherlands",
				"latitude": 52.095110010632,
				"longitude": 5.2443626082695,
				"street": "Bergweg 92a",
				"zip": "3707 AE"
			},
			"website": "http://www.noorderlichtgemeente.nl"
		}
	},
	{
		"name": "Stadshartkerk Amstelveen",
		"facebook_url": "https://www.facebook.com/groups/stadshartkerk/",
		"twitter_name": "@Stadshartkerk",
		"website": "http://www.stadshartkerk.nl/",
		"twitter": {
			"statuses_count": 241,
			"followers_count": 37
		},
		"facebook": {
			"graphUrl": "https://graph.facebook.com/stadshartkerk",
			"id": "205883976095135",
			"likes": 124,
			"were_here_count": 6,
			"checkins": 6,
			"location": {
				"city": "Amstelveen",
				"country": "Netherlands",
				"latitude": 52.301678317648,
				"longitude": 4.867589352657,
				"street": "Maarten Lutherweg 251",
				"zip": "1185 AM"
			},
			"website": "http://www.stadshartkerk.nl"
		}
	},
	{
		"name": "Evangelische Gemeente 'De Ambassade'",
		"facebook_url": "https://www.facebook.com/de.ambassade",
		"twitter_name": "",
		"website": "http://www.de-ambassade.nl/",
		"facebook": {
			"graphUrl": "https://graph.facebook.com/de.ambassade",
			"id": "749211191771789",
			"likes": 81,
			"talking_about_count": 6,
			"were_here_count": 5,
			"checkins": 5,
			"location": {
				"city": "Den Helder",
				"country": "Netherlands",
				"latitude": 52.9612885,
				"longitude": 4.76752,
				"street": "Nieuwe Kerkplein 2",
				"zip": "1781 BA"
			},
			"website": "http://www.de-ambassade.nl"
		}
	},
	{
		"name": "CGK Heerde",
		"facebook_url": "https://facebook.com/cgkheerde",
		"twitter_name": "@cgkheerde",
		"website": "http://www.cgk-heerde.nl",
		"twitter": {
			"statuses_count": 857,
			"followers_count": 139,
			"friends_count": 58
		},
		"facebook": {
			"graphUrl": "https://graph.facebook.com/cgkheerde",
			"id": "299550933392894",
			"likes": 138,
			"talking_about_count": 5,
			"were_here_count": 12,
			"checkins": 12,
			"location": {
				"city": "Heerde",
				"country": "Netherlands",
				"latitude": 52.3822784,
				"longitude": 6.0394602,
				"street": "Acacialaan 45",
				"zip": "8181 GG"
			},
			"website": "http://www.cgk-heerde.nl"
		}
	},
	{
		"name": "De Verbinding, Baptistengemeente Amsterdam",
		"facebook_url": "https://www.facebook.com/bgdeverbinding",
		"twitter_name": "@bgdeverbinding",
		"website": "http://bgdeverbinding.nl/",
		"twitter": {
			"statuses_count": 318,
			"followers_count": 41,
			"friends_count": 29
		},
		"facebook": {
			"graphUrl": "https://graph.facebook.com/bgdeverbinding",
			"id": "394028044008214",
			"likes": 110,
			"talking_about_count": 19,
			"were_here_count": 22,
			"checkins": 22,
			"location": {
				"city": "Amsterdam",
				"country": "Netherlands",
				"latitude": 52.356838155332,
				"longitude": 4.8387458359584,
				"street": "Schipluidenlaan 12",
				"zip": "1062 HE"
			},
			"website": "http://bgdeverbinding.nl"
		}
	},
	{
		"name": "Onze Roeping Getrouw",
		"facebook_url": "https://www.facebook.com/onzeroeping.getrouw",
		"twitter_name": "",
		"facebook": {
			"graphUrl": "https://graph.facebook.com/onzeroeping.getrouw",
			"message": "(#803) Cannot query users by their username (onzeroeping.getrouw)"
		}
	},
	{
		"name": "Parochie H. Joannes de Doper Meerlo",
		"facebook_url": "https://www.facebook.com/parochiemeerlo",
		"twitter_name": "",
		"website": "http://www.3kerken.nl/meerlo/",
		"facebook": {
			"graphUrl": "https://graph.facebook.com/parochiemeerlo",
			"id": "223222027843136",
			"likes": 73,
			"were_here_count": 4,
			"checkins": 4,
			"location": {
				"city": "Meerlo",
				"country": "Netherlands",
				"latitude": 51.5149498,
				"longitude": 6.0868502,
				"street": "Hoofdstraat 17",
				"zip": "5864 BC"
			},
			"website": "http://www.3kerken.nl/meerlo/"
		}
	},
	{
		"name": "Parochie H. Lambertus Swolgen",
		"facebook_url": "https://www.facebook.com/parochieswolgen",
		"twitter_name": "",
		"website": "http://www.parochieswolgen.nl",
		"facebook": {
			"graphUrl": "https://graph.facebook.com/parochieswolgen",
			"id": "741926279156257",
			"likes": 41,
			"were_here_count": 3,
			"checkins": 3,
			"location": {
				"city": "Swolgen",
				"country": "Netherlands",
				"latitude": 51.4918518,
				"longitude": 6.1185198,
				"street": "Mgr Aertsstraat 6",
				"zip": "5866 BH"
			},
			"website": "http://www.parochieswolgen.nl"
		}
	},
	{
		"name": "Parochie OLV Troosteres der Bedrukten",
		"facebook_url": "https://www.facebook.com/pages/Parochie-OLV-Troosteres-der-Bedrukten/414731775315833",
		"twitter_name": "",
		"website": "http://www.kleinlourdes.nl",
		"facebook": {
			"graphUrl": "https://graph.facebook.com/414731775315833",
			"id": "414731775315833",
			"likes": 74,
			"were_here_count": 4,
			"checkins": 4,
			"location": {
				"city": "Tienray",
				"country": "Netherlands",
				"latitude": 51.49551445176,
				"longitude": 6.0926302043572,
				"street": "Kloosterstraat 1",
				"zip": "5865 AA"
			},
			"website": "http://www.kleinlourdes.nl"
		}
	},
	{
		"name": "Protestantse Gemeente ‘t Harde",
		"facebook_url": "https://www.facebook.com/pages/Protestantse-Gemeente-t-Harde/265064570213259",
		"twitter_name": "@pgtharde",
		"website": "http://www.pgtharde.nl",
		"twitter": {
			"statuses_count": 393,
			"followers_count": 76,
			"friends_count": 60
		},
		"facebook": {
			"graphUrl": "https://graph.facebook.com/265064570213259",
			"id": "265064570213259",
			"likes": 204,
			"talking_about_count": 9,
			"website": "http://www.pgtharde.nl"
		}
	},
	{
		"name": "Reality Scheveningen",
		"facebook_url": "https://www.facebook.com/RealityScheveningen",
		"twitter_name": "@twitreality",
		"website": "http://realitychurch.nl/",
		"twitter": {
			"statuses_count": 280,
			"followers_count": 74,
			"friends_count": 18
		},
		"facebook": {
			"graphUrl": "https://graph.facebook.com/RealityScheveningen",
			"id": "230170919850",
			"likes": 296,
			"location": {
				"city": "Scheveningen",
				"country": "Netherlands"
			},
			"website": "http://realitychurch.nl"
		}
	},
	{
		"name": "Opstandingskerk Utrecht",
		"facebook_url": "https://www.facebook.com/Opstandingskerk",
		"twitter_name": "@geloofhet",
		"website": "http://www.geloofhet.nl/",
		"twitter": {
			"statuses_count": 104,
			"followers_count": 86,
			"friends_count": 117
		},
		"facebook": {
			"graphUrl": "https://graph.facebook.com/Opstandingskerk",
			"id": "144944792350410",
			"likes": 207,
			"talking_about_count": 2,
			"were_here_count": 34,
			"checkins": 34,
			"location": {
				"city": "Utrecht",
				"country": "Netherlands",
				"latitude": 52.1146088,
				"longitude": 5.0857201,
				"street": "Prinses Margrietstraat 126",
				"zip": "3554 GJ"
			},
			"website": "http://www.geloofhet.nl"
		}
	},
	{
		"name": "De Burcht Sleeuwijk",
		"facebook_url": "https://www.facebook.com/burchtsleeuwijk",
		"twitter_name": "@burchtsleeuwijk",
		"website": "http://www.deburchtsleeuwijk.nl/",
		"twitter": {
			"statuses_count": 311,
			"followers_count": 58,
			"friends_count": 53
		},
		"facebook": {
			"graphUrl": "https://graph.facebook.com/burchtsleeuwijk",
			"id": "290024714440909",
			"likes": 154,
			"talking_about_count": 4,
			"were_here_count": 16,
			"checkins": 16,
			"location": {
				"city": "Sleeuwijk",
				"country": "Netherlands",
				"latitude": 51.805965163855,
				"longitude": 4.941320931543,
				"street": "Rijksstraatweg 153",
				"zip": "4254 XD"
			},
			"website": "http://www.deburchtsleeuwijk.nl"
		}
	},
	{
		"name": "Maranatha Ministries Amsterdam",
		"facebook_url": "https://www.facebook.com/maranatha.kerk.amsterdam",
		"twitter_name": "@MaranathaNL",
		"website": "http://www.maranatha.nl",
		"twitter": {
			"statuses_count": 696,
			"followers_count": 150,
			"friends_count": 2
		},
		"facebook": {
			"graphUrl": "https://graph.facebook.com/maranatha.kerk.amsterdam",
			"id": "199285950116811",
			"likes": 3603,
			"talking_about_count": 189,
			"were_here_count": 1429,
			"checkins": 1429,
			"location": {
				"city": "Amsterdam",
				"country": "Netherlands",
				"latitude": 52.3680115,
				"longitude": 4.8548799,
				"street": "Cabotstraat 33",
				"zip": "1057 VP"
			},
			"website": "http://www.maranatha.nl"
		}
	},
	{
		"name": "CAMA Parousia Woerden",
		"facebook_url": "https://www.facebook.com/camawoerden",
		"twitter_name": "",
		"website": "http://www.camawoerden.nl/",
		"facebook": {
			"graphUrl": "https://graph.facebook.com/camawoerden",
			"id": "171207376411360",
			"likes": 219,
			"talking_about_count": 3,
			"were_here_count": 1,
			"checkins": 1,
			"location": {
				"city": "Kamerik",
				"country": "Netherlands",
				"latitude": 52.1145515,
				"longitude": 4.8899298,
				"street": "Overstek 2",
				"zip": "3471 EJ"
			},
			"website": "http://www.camawoerden.nl"
		}
	},
	{
		"name": "PKN Well - Ammerzoden",
		"facebook_url": "https://www.facebook.com/pagina.kerkWellAmmerzoden",
		"twitter_name": "@wellsekerk",
		"website": "http://hervormdegemeentewell.nl/",
		"twitter": {
			"statuses_count": 24226,
			"followers_count": 56,
			"friends_count": 34
		},
		"facebook": {
			"graphUrl": "https://graph.facebook.com/pagina.kerkWellAmmerzoden",
			"id": "101833656638544",
			"likes": 222,
			"location": {
				"city": "Dorpstraat 7",
				"zip": "5325 XG"
			},
			"website": "http://www.hervormdegemeentewell.nl"
		}
	},
	{
		"name": "Mozaiek0318",
		"facebook_url": "https://www.facebook.com/pages/Mozaiek0318/232846420175891",
		"twitter_name": "@mozaiek0318",
		"website": "http://mozaiek0318.nl",
		"twitter": {
			"statuses_count": 1655,
			"followers_count": 954,
			"friends_count": 388
		},
		"facebook": {
			"graphUrl": "https://graph.facebook.com/232846420175891",
			"id": "232846420175891",
			"likes": 1723,
			"talking_about_count": 293,
			"were_here_count": 605,
			"checkins": 605,
			"location": {
				"city": "Veenendaal",
				"country": "Netherlands",
				"latitude": 52.038691414037,
				"longitude": 5.5633933382388,
				"street": "Wiltonstraat 56"
			},
			"website": "http://www.mozaiek0318.nl"
		}
	},
	{
		"name": "Baptistengemeente Deventer",
		"facebook_url": "https://www.facebook.com/baptistendeventer",
		"twitter_name": "",
		"website": "http://www.baptistendeventer.nl",
		"facebook": {
			"graphUrl": "https://graph.facebook.com/baptistendeventer",
			"id": "219887104697602",
			"likes": 80,
			"talking_about_count": 2,
			"were_here_count": 62,
			"checkins": 62,
			"location": {
				"city": "Deventer",
				"country": "Netherlands",
				"latitude": 52.2567787,
				"longitude": 6.1538401,
				"street": "Binnensingel 16",
				"zip": "7411 PM"
			},
			"website": "http://www.baptistendeventer.nl"
		}
	},
	{
		"name": "Leger des Heils korps Utrecht",
		"facebook_url": "https://www.facebook.com/korpsutrecht",
		"twitter_name": "",
		"website": "http://www.legerdesheilsutrecht.nl",
		"facebook": {
			"graphUrl": "https://graph.facebook.com/korpsutrecht",
			"id": "157893457595542",
			"likes": 470,
			"talking_about_count": 15,
			"were_here_count": 108,
			"checkins": 108,
			"location": {
				"city": "Utrecht",
				"country": "Netherlands",
				"latitude": 52.11997038959,
				"longitude": 5.1185850486327,
				"street": "Schooneggendreef 27H",
				"zip": "3562 GG Utrecht"
			},
			"website": "http://www.legerdesheilsutrecht.nl"
		}
	},
	{
		"name": "Open Hof Kerk Aalsmeer",
		"facebook_url": "https://www.facebook.com/openhofkerkaalsmeer",
		"twitter_name": "@openhofkerk",
		"website": "http://www.pgaalsmeer.nl",
		"twitter": {
			"statuses_count": 2552,
			"followers_count": 77,
			"friends_count": 57
		},
		"facebook": {
			"graphUrl": "https://graph.facebook.com/openhofkerkaalsmeer",
			"id": "295058550581873",
			"likes": 61,
			"talking_about_count": 1,
			"were_here_count": 18,
			"checkins": 18,
			"location": {
				"city": "Aalsmeer",
				"country": "Netherlands",
				"latitude": 52.2670593,
				"longitude": 4.7683802,
				"street": "Ophelialaan 247",
				"zip": "1431 HH"
			},
			"website": "http://www.pgaalsmeer.nl"
		}
	},
	{
		"name": "Baptistengemeente Ichthus Waddinxveen",
		"facebook_url": "https://www.facebook.com/BaptistengemeenteIchthusWaddinxveen",
		"twitter_name": "@ichthuswveen",
		"website": "http://www.baptistengemeente-ichthus.nl/",
		"twitter": {
			"statuses_count": 149,
			"followers_count": 111,
			"friends_count": 216
		},
		"facebook": {
			"graphUrl": "https://graph.facebook.com/BaptistengemeenteIchthusWaddinxveen",
			"id": "275326095871319",
			"likes": 188,
			"talking_about_count": 6,
			"website": "http://www.baptistengemeente-ichthus.nl"
		}
	},
	{
		"name": "Open Hof Kerk Aalsmeer",
		"facebook_url": "https://www.facebook.com/Openhofkerkaalsmeer",
		"twitter_name": "@openhofkerk",
		"website": "http://pgaalsmeer.nl/",
		"twitter": {
			"statuses_count": 2552,
			"followers_count": 77,
			"friends_count": 57
		},
		"facebook": {
			"graphUrl": "https://graph.facebook.com/Openhofkerkaalsmeer",
			"id": "295058550581873",
			"likes": 61,
			"talking_about_count": 1,
			"were_here_count": 18,
			"checkins": 18,
			"location": {
				"city": "Aalsmeer",
				"country": "Netherlands",
				"latitude": 52.2670593,
				"longitude": 4.7683802,
				"street": "Ophelialaan 247",
				"zip": "1431 HH"
			},
			"website": "http://www.pgaalsmeer.nl"
		}
	},
	{
		"name": "Leger des Heils korps Utrecht",
		"facebook_url": "https://www.facebook.com/korpsutrecht",
		"twitter_name": "",
		"website": "http://www.legerdesheilsutrecht.nl",
		"facebook": {
			"graphUrl": "https://graph.facebook.com/korpsutrecht",
			"id": "157893457595542",
			"likes": 470,
			"talking_about_count": 15,
			"were_here_count": 108,
			"checkins": 108,
			"location": {
				"city": "Utrecht",
				"country": "Netherlands",
				"latitude": 52.11997038959,
				"longitude": 5.1185850486327,
				"street": "Schooneggendreef 27H",
				"zip": "3562 GG Utrecht"
			},
			"website": "http://www.legerdesheilsutrecht.nl"
		}
	},
	{
		"name": "ParkCity Church",
		"facebook_url": "https://www.facebook.com/ParkCity-Church-192321247453526",
		"twitter_name": "@parkcitychurch",
		"website": "http://www.parkcitychurch.nl",
		"twitter": {
			"statuses_count": 1345,
			"followers_count": 285,
			"friends_count": 192
		},
		"facebook": {
			"graphUrl": "https://graph.facebook.com/ParkCity-Church-192321247453526",
			"message": "(#803) Some of the aliases you requested do not exist: ParkCity-Church-192321247453526"
		}
	},
	{
		"name": "NGK Voorthuizen-Barneveld",
		"facebook_url": "https://www.facebook.com/ngkdeontmoeting",
		"twitter_name": "@NGKDeOntmoeting",
		"website": "http://www.ngkvoorthuizenbarneveld.nl",
		"twitter": {
			"statuses_count": 235,
			"followers_count": 153,
			"friends_count": 222
		},
		"facebook": {
			"graphUrl": "https://graph.facebook.com/ngkdeontmoeting",
			"id": "131135357057226",
			"likes": 293,
			"talking_about_count": 19,
			"website": "http://www.ngkdeontmoeting.nl"
		}
	},
	{
		"name": "R.K. geloofsgemeenschap St. Joseph",
		"facebook_url": "",
		"twitter_name": "@stjosephOLVA",
		"website": "http://www.stjoseph-olva.nl",
		"twitter": {
			"statuses_count": 2055,
			"followers_count": 198,
			"friends_count": 303
		}
	},
	{
		"name": "Protestantsegemeente Bergen op Zoom",
		"facebook_url": "https://www.facebook.com/pages/Protestantse-kerk-Bergen-op-Zoom/268402903262084",
		"twitter_name": "",
		"website": "http://www.protestantsekerkbergenopzoom.nl",
		"facebook": {
			"graphUrl": "https://graph.facebook.com/268402903262084",
			"id": "268402903262084",
			"likes": 110,
			"talking_about_count": 2,
			"were_here_count": 41,
			"checkins": 41,
			"location": {
				"city": "Bergen op Zoom",
				"country": "Netherlands",
				"latitude": 51.4988518,
				"longitude": 4.2860498,
				"street": "Bolwerk Zuid 134",
				"zip": "4611dx"
			},
			"website": "http://www.protestantsekerkbergenopzoom.nl"
		}
	},
	{
		"name": "Sionskerk Veenendaal",
		"facebook_url": "http://www.facebook.com/SionskerkVeenendaal",
		"twitter_name": "@sionskerkpkn",
		"website": "http://www.hervormd-veenendaal.nl/startpagina-sionskerk",
		"twitter": {
			"statuses_count": 786,
			"followers_count": 365,
			"friends_count": 627
		},
		"facebook": {
			"graphUrl": "https://graph.facebook.com/SionskerkVeenendaal",
			"id": "216230451826154",
			"likes": 259,
			"talking_about_count": 42,
			"were_here_count": 126,
			"checkins": 126,
			"location": {
				"city": "Veenendaal",
				"country": "Netherlands",
				"latitude": 52.0190811,
				"longitude": 5.5398302,
				"street": "Adriaen van Ostadelaan 78"
			},
			"website": "http://hervormd-veenendaal.nl/index.php/laatste-nieuws-sionskerk"
		}
	},
	{
		"name": "Vergadering van gelovigen Hellevoetsluis",
		"facebook_url": "http://www.facebook.com/vvghnl",
		"twitter_name": "@vvghnl",
		"website": "http://www.vvgh.nl",
		"twitter": {
			"statuses_count": 331,
			"followers_count": 72,
			"friends_count": 30
		},
		"facebook": {
			"graphUrl": "https://graph.facebook.com/vvghnl",
			"id": "115170661972994",
			"likes": 54,
			"website": "http://www.vvgh.nl"
		}
	},
	{
		"name": "Baptistengemeente Lelystad",
		"facebook_url": "https://www.facebook.com/groups/143707035010/",
		"twitter_name": "@BG_Hoeksteen",
		"website": "http://www.baptistenlelystad.nl/",
		"twitter": {
			"statuses_count": 869,
			"followers_count": 275,
			"friends_count": 201
		},
		"facebook": {
			"graphUrl": "https://graph.facebook.com/143707035010",
			"id": "143707035010",
			"location": {
				"city": "Lelystad",
				"country": "Netherlands",
				"latitude": 52.5167,
				"longitude": 5.45,
				"state": "Flevoland",
				"street": "Schouw 24-96"
			}
		}
	},
	{
		"name": "Prinses Julianakerk Scheveningen",
		"facebook_url": "https://www.facebook.com/prinsesjulianakerk.scheveningen.1",
		"twitter_name": "",
		"website": "http://www.prinsesjulianakerk.nl",
		"facebook": {
			"graphUrl": "https://graph.facebook.com/prinsesjulianakerk.scheveningen.1",
			"id": "594631550597353",
			"likes": 197,
			"website": "http://www.prinsesjulianakerk.nl/"
		}
	},
	{
		"name": "Kom en Zie Schinnen",
		"facebook_url": "https://www.facebook.com/komenzie.schinnen",
		"twitter_name": "@kzschinnen",
		"website": "http://www.komenzie.net",
		"twitter": {
			"statuses_count": 368,
			"followers_count": 175,
			"friends_count": 289
		},
		"facebook": {
			"graphUrl": "https://graph.facebook.com/komenzie.schinnen",
			"id": "449931371744394",
			"likes": 306,
			"talking_about_count": 27,
			"were_here_count": 578,
			"checkins": 578,
			"location": {
				"city": "Schinnen",
				"country": "Netherlands",
				"latitude": 50.937774480662,
				"longitude": 5.8767685690052,
				"street": "Breinder 5",
				"zip": "6365 CX"
			},
			"website": "http://Www.komenzie.net"
		}
	},
	{
		"name": "Protestantse Gemeente Enschede",
		"facebook_url": "https://www.facebook.com/PGEnschede",
		"twitter_name": "",
		"website": "http://www.pgenschede.nl",
		"facebook": {
			"graphUrl": "https://graph.facebook.com/PGEnschede",
			"id": "161194977304693",
			"likes": 228,
			"talking_about_count": 12,
			"location": {
				"city": "Varviksingel 139"
			},
			"website": "http://www.pgenschede.nl"
		}
	},
	{
		"name": "Driestwegkerk",
		"facebook_url": "http://facebook.com/driestwegkerk",
		"twitter_name": "@driestwegkerk",
		"website": "http://www.driestwegkerk.nl",
		"twitter": {
			"statuses_count": 226,
			"followers_count": 75,
			"friends_count": 290
		},
		"facebook": {
			"graphUrl": "https://graph.facebook.com/driestwegkerk",
			"id": "136291856551208",
			"likes": 138,
			"talking_about_count": 14,
			"were_here_count": 77,
			"checkins": 77,
			"location": {
				"city": "Nunspeet",
				"country": "Netherlands",
				"latitude": 52.3751106,
				"longitude": 5.7830801,
				"street": "Driestweg 4",
				"zip": "8071 BT"
			},
			"website": "http://www.driestwegkerk.nl"
		}
	},
	{
		"name": "Pelgrimvaderskerk (Hervormde Gemeente Delfshaven, Rotterdam)",
		"facebook_url": "https://www.facebook.com/Pelgrimvaderskerk",
		"twitter_name": "@kerkindestad",
		"website": "http://www.pelgrimvaderskerk.nl",
		"twitter": {
			"statuses_count": 1795,
			"followers_count": 1050,
			"friends_count": 977
		},
		"facebook": {
			"graphUrl": "https://graph.facebook.com/Pelgrimvaderskerk",
			"id": "336561063123006",
			"likes": 288,
			"talking_about_count": 4,
			"were_here_count": 393,
			"checkins": 393,
			"location": {
				"city": "Rotterdam",
				"country": "Netherlands",
				"latitude": 51.908577625573,
				"longitude": 4.4488211891156,
				"street": "Aelbrechtskolk 20",
				"zip": "3024 RE"
			},
			"website": "http://www.pelgrimvaderskerk.nl"
		}
	},
	{
		"name": "Protestantse gemeente Waalwijk",
		"facebook_url": "",
		"twitter_name": "@PGWaalwijk",
		"website": "http://www.pgwaalwijk.nl",
		"twitter": {
			"statuses_count": 137,
			"followers_count": 55,
			"friends_count": 30
		}
	},
	{
		"name": "Protestantse wijkgemeente Kerk aan de Haven",
		"facebook_url": "",
		"twitter_name": "@kerkaandehaven",
		"website": "http://www.kerkaandehaven.nl",
		"twitter": {
			"statuses_count": 54,
			"followers_count": 26
		}
	},
	{
		"name": "Protestantse wijkgemeente Ambrosiuskerk",
		"facebook_url": "",
		"twitter_name": "@Ambrosiuskerk",
		"website": "http://www.kerkinwaalwijk.nl",
		"twitter": {
			"statuses_count": 275,
			"followers_count": 57,
			"friends_count": 16
		}
	},
	{
		"name": "Doopsgezinden",
		"facebook_url": "https://www.facebook.com/pages/Doopsgezinden/181271458575708?fref=ts",
		"twitter_name": "@doopsgezinden",
		"website": "http://www.doopsgezind.nl",
		"twitter": {
			"statuses_count": 453,
			"followers_count": 367,
			"friends_count": 91
		},
		"facebook": {
			"graphUrl": "https://graph.facebook.com/181271458575708?fref=ts",
			"message": "An access token is required to request this resource."
		}
	},
	{
		"name": "Jeugdkerk Cross-Road, Hoogeveen",
		"facebook_url": "http://www.facebook.com/crossroadhgv",
		"twitter_name": "@CrossRoad_HGV",
		"website": "http://www.cross-road.nl",
		"twitter": {
			"statuses_count": 1352,
			"followers_count": 310,
			"friends_count": 346
		},
		"facebook": {
			"graphUrl": "https://graph.facebook.com/crossroadhgv",
			"id": "107531265952464",
			"likes": 382,
			"talking_about_count": 16,
			"location": {
				"city": "Hoogeveen",
				"country": "Netherlands",
				"zip": "7900aa"
			},
			"website": "http://www.cross-road.nl "
		}
	},
	{
		"name": "Vrije Baptisten Gemeente 'de Brug', Hoogeveen",
		"facebook_url": "http://www.facebook.com/vbgdebrug",
		"twitter_name": "@VBGDeBrug",
		"website": "http://www.debrughoogeveen.nl",
		"twitter": {
			"statuses_count": 179,
			"followers_count": 106,
			"friends_count": 1
		},
		"facebook": {
			"graphUrl": "https://graph.facebook.com/vbgdebrug",
			"id": "286793294681519",
			"likes": 144,
			"talking_about_count": 3,
			"were_here_count": 45,
			"checkins": 45,
			"location": {
				"city": "Hoogeveen",
				"country": "Netherlands",
				"latitude": 52.7353783,
				"longitude": 6.48457,
				"street": "Voltastraat 33",
				"zip": "7903AA"
			},
			"website": "http://www.debrughoogeveen.nl"
		}
	},
	{
		"name": "Unie Baptistengemeente 'de Schutse', Hoogeveen",
		"facebook_url": "http://www.facebook.com/deschutse",
		"twitter_name": "@deschutse",
		"website": "http://www.deschutse.net",
		"twitter": {
			"statuses_count": 776,
			"followers_count": 197,
			"friends_count": 44
		},
		"facebook": {
			"graphUrl": "https://graph.facebook.com/deschutse",
			"id": "351604624860592",
			"likes": 142,
			"talking_about_count": 24,
			"were_here_count": 54,
			"checkins": 54,
			"location": {
				"city": "Hoogeveen",
				"country": "Netherlands",
				"latitude": 52.720217087021,
				"longitude": 6.4715906306627,
				"street": "Schutstraat 147",
				"zip": "7907CD"
			},
			"website": "http://deschutse.net"
		}
	},
	{
		"name": "Protestantse Gemeente Lexmond",
		"facebook_url": "https://www.facebook.com/pages/Lux-Mundi/270441862974399?fref=ts",
		"twitter_name": "@luxmundi7",
		"website": "http://www.lux-mundi.nl/",
		"twitter": {
			"statuses_count": 1826,
			"followers_count": 173,
			"friends_count": 224
		},
		"facebook": {
			"graphUrl": "https://graph.facebook.com/270441862974399?fref=ts",
			"message": "An access token is required to request this resource."
		}
	},
	{
		"name": "Crossroads Rotterdam",
		"facebook_url": "https://www.facebook.com/CrossroadsRdam",
		"twitter_name": "@CrossroadsRdam",
		"website": "http://www.crossroadsrotterdam.nl",
		"twitter": {
			"statuses_count": 365,
			"followers_count": 173,
			"friends_count": 152
		},
		"facebook": {
			"graphUrl": "https://graph.facebook.com/CrossroadsRdam",
			"id": "146014458775298",
			"likes": 283,
			"location": {
				"city": "Rotterdam",
				"street": "Beukelsdijk 91",
				"zip": "3021 AE"
			},
			"website": "http://www.crossroadsrotterdam.nl"
		}
	},
	{
		"name": "Protestantse Wijkgemeente Stadspolders Dordrecht",
		"facebook_url": "https://www.facebook.com/pages/Protestantse-Wijkgemeente-Stadspolders/262453940530401",
		"twitter_name": "@pknstadspolders",
		"website": "http://www.pkn-stadspolders.nl/",
		"twitter": {
			"statuses_count": 383,
			"followers_count": 40,
			"friends_count": 22
		},
		"facebook": {
			"graphUrl": "https://graph.facebook.com/262453940530401",
			"id": "262453940530401",
			"likes": 173,
			"talking_about_count": 26,
			"were_here_count": 1,
			"checkins": 1,
			"location": {
				"city": "Dordrecht",
				"country": "Netherlands",
				"latitude": 51.802575581392,
				"longitude": 4.7183390973054,
				"street": "Dudok-Erf 30",
				"zip": "3315 KA"
			},
			"website": "http://www.pkn-stadspolders.nl"
		}
	},
	{
		"name": "Protestantse gemeente De Levensbron Rilland",
		"facebook_url": "https://www.facebook.com/delevensbronrilland",
		"twitter_name": "",
		"website": "http://delevensbronrilland.nl/",
		"facebook": {
			"graphUrl": "https://graph.facebook.com/delevensbronrilland",
			"id": "130790463771244",
			"likes": 62,
			"talking_about_count": 1,
			"were_here_count": 11,
			"checkins": 11,
			"location": {
				"city": "Rilland",
				"country": "Netherlands",
				"latitude": 51.418211117001,
				"longitude": 4.1848464127184,
				"street": "Valckenisseweg 12"
			},
			"website": "http://www.delevensbronrilland.nl/"
		}
	},
	{
		"name": "Protestantse Gemeente te Workum",
		"facebook_url": "http://www.facebook.com/pgworkum",
		"twitter_name": "",
		"website": "http://www.pgworkum.nl",
		"facebook": {
			"graphUrl": "https://graph.facebook.com/pgworkum",
			"id": "198446770228911",
			"likes": 156,
			"talking_about_count": 15,
			"were_here_count": 6,
			"checkins": 6,
			"location": {
				"city": "Workum",
				"country": "Netherlands",
				"latitude": 52.9790192,
				"longitude": 5.4426599,
				"street": "Merk 5",
				"zip": "8711 CL"
			},
			"website": "http://www.pgworkum.nl"
		}
	},
	{
		"name": "Christelijke gemeente De Wegwijzer",
		"facebook_url": "https://www.facebook.com/dewegwijzeralmere",
		"twitter_name": "@wegwijzeralmere",
		"website": "http://www.dewegwijzer-almere.nl",
		"twitter": {
			"statuses_count": 251,
			"followers_count": 112,
			"friends_count": 11
		},
		"facebook": {
			"graphUrl": "https://graph.facebook.com/dewegwijzeralmere",
			"id": "1423465177891414",
			"likes": 258,
			"talking_about_count": 1,
			"website": "http://www.dewegwijzer-almere.nl/"
		}
	},
	{
		"name": "Protestantse Gemeente Apeldoorn",
		"facebook_url": "https://www.facebook.com/ProtestantsApeldoorn",
		"twitter_name": "@protestants055",
		"website": "http://www.pkn-apeldoorn.nl",
		"twitter": {
			"statuses_count": 787,
			"followers_count": 147,
			"friends_count": 109
		},
		"facebook": {
			"graphUrl": "https://graph.facebook.com/ProtestantsApeldoorn",
			"id": "515811821838750",
			"likes": 170,
			"website": "http://www.pkn-apeldoorn.nl"
		}
	},
	{
		"name": "De Salvator",
		"facebook_url": "https://www.facebook.com/desalvator",
		"twitter_name": "@DeSalvator",
		"website": "http://desalvator.nl/",
		"twitter": {
			"statuses_count": 1092,
			"followers_count": 280,
			"friends_count": 72
		},
		"facebook": {
			"graphUrl": "https://graph.facebook.com/desalvator",
			"id": "206655726041281",
			"likes": 508,
			"talking_about_count": 111,
			"were_here_count": 348,
			"checkins": 348,
			"location": {
				"city": "Leeuwarden",
				"country": "Netherlands",
				"latitude": 53.210062607887,
				"longitude": 5.8165032354636,
				"street": "Archipelweg 133",
				"zip": "8921 VX"
			},
			"website": "http://www.desalvator.nl"
		}
	},
	{
		"name": "CGK Emmeloord",
		"facebook_url": "https://www.facebook.com/CGKEmmeloord",
		"twitter_name": "@CGKEmmeloord",
		"website": "http://www.hoeksteenemmeloord.nl/",
		"twitter": {
			"statuses_count": 243,
			"followers_count": 72,
			"friends_count": 16
		},
		"facebook": {
			"graphUrl": "https://graph.facebook.com/CGKEmmeloord",
			"id": "168410236579062",
			"likes": 115,
			"talking_about_count": 7,
			"were_here_count": 11,
			"checkins": 11,
			"location": {
				"city": "Emmeloord",
				"country": "Netherlands",
				"latitude": 52.7086716,
				"longitude": 5.7537498,
				"street": "Nagelerstraat 2",
				"zip": "8301 XE"
			},
			"website": "http://www.hoeksteenemmeloord.nl/"
		}
	},
	{
		"name": "GKV De Kandelaar",
		"facebook_url": "https://www.facebook.com/gkvstadskanaal",
		"twitter_name": "",
		"website": "http://www.gkvdekandelaar.nl/",
		"facebook": {
			"graphUrl": "https://graph.facebook.com/gkvstadskanaal",
			"id": "121505121272476",
			"likes": 71,
			"were_here_count": 40,
			"checkins": 40,
			"location": {
				"city": "Stadskanaal",
				"country": "Netherlands",
				"latitude": 52.984273027414,
				"longitude": 6.9600475527451,
				"street": "Navolaan 28",
				"zip": "9501VJ"
			},
			"website": "http://www.gkvdekandelaar.nl"
		}
	},
	{
		"name": "GKV Pijnacker-Noordorp",
		"facebook_url": "https://www.facebook.com/facebook.gkvpn.nl",
		"twitter_name": "@GKvHetKruispunt",
		"website": "http://www.gkvpn.nl",
		"twitter": {
			"statuses_count": 93,
			"followers_count": 65,
			"friends_count": 20
		},
		"facebook": {
			"graphUrl": "https://graph.facebook.com/facebook.gkvpn.nl",
			"id": "362533787181415",
			"likes": 97,
			"talking_about_count": 23,
			"were_here_count": 60,
			"checkins": 60,
			"location": {
				"city": "Pijnacker",
				"country": "Netherlands",
				"latitude": 52.01469268354,
				"longitude": 4.4337591534424,
				"street": "Julianalaan 40a",
				"zip": "2641 HD"
			},
			"website": "http://www.gkvpn.nl"
		}
	},
	{
		"name": "hervormde gemeente Den Bommel",
		"facebook_url": "https://www.facebook.com/hervormdegemeente.denbommel.1",
		"twitter_name": "",
		"website": "http://www.hervormdegemeentedenbommel.nl",
		"facebook": {
			"graphUrl": "https://graph.facebook.com/hervormdegemeente.denbommel.1",
			"message": "(#803) Cannot query users by their username (hervormdegemeente.denbommel.1)"
		}
	},
	{
		"name": "Baptistengemeente Doetinchem",
		"facebook_url": "https://www.facebook.com/baptistendoetinchem",
		"twitter_name": "@baptistendgem",
		"website": "http://baptistendoetinchem.nl",
		"twitter": {
			"statuses_count": 301,
			"followers_count": 240,
			"friends_count": 33
		},
		"facebook": {
			"graphUrl": "https://graph.facebook.com/baptistendoetinchem",
			"id": "175500448701",
			"likes": 132,
			"talking_about_count": 2,
			"checkins": 5,
			"location": {
				"city": "Doetinchem",
				"country": "Netherlands"
			},
			"website": "http://www.baptistendoetinchem.nl"
		}
	},
	{
		"name": "GKV de Levensbron, Ten Boer",
		"facebook_url": "https://www.facebook.com/pages/Gkv-De-Levensbron-Ten-Boer/492050977501464",
		"twitter_name": "",
		"website": "http://www.tenboer.gkv.nl/",
		"facebook": {
			"graphUrl": "https://graph.facebook.com/492050977501464",
			"id": "492050977501464",
			"likes": 68,
			"were_here_count": 15,
			"checkins": 15,
			"location": {
				"city": "Ten Boer",
				"country": "Netherlands",
				"latitude": 53.2728806,
				"longitude": 6.6901999,
				"street": "Vijverweide 26",
				"zip": "9791 EB"
			},
			"website": "http://www.tenboer.gkv.nl"
		}
	},
	{
		"name": "Christengemeente",
		"facebook_url": "https://www.facebook.com/pages/Christengemeente-Buitenpost/417355054948403",
		"twitter_name": "",
		"website": "http://www.christengemeentebuitenpost.nl/",
		"facebook": {
			"graphUrl": "https://graph.facebook.com/417355054948403",
			"id": "417355054948403",
			"likes": 212,
			"talking_about_count": 1,
			"were_here_count": 49,
			"checkins": 49,
			"location": {
				"city": "Buitenpost",
				"country": "Netherlands",
				"latitude": 53.25748950963,
				"longitude": 6.1419315650704,
				"street": "Marconistraat 5",
				"zip": "9285"
			},
			"website": "http://www.christengemeentebuitenpost.nl"
		}
	},
	{
		"name": "PKN Roden-Roderwolde",
		"facebook_url": "https://www.facebook.com/pknroden.nl",
		"twitter_name": "@pknroden",
		"website": "http://www.pkn-roden.nl",
		"twitter": {
			"statuses_count": 554,
			"followers_count": 98,
			"friends_count": 107
		},
		"facebook": {
			"graphUrl": "https://graph.facebook.com/pknroden.nl",
			"id": "574345965980658",
			"likes": 36,
			"talking_about_count": 2,
			"website": "http://pkn-roden.nl"
		}
	},
	{
		"name": "Pro Rege",
		"facebook_url": "http://www.facebook.com/GKVEMMELOORD",
		"twitter_name": "@GKVEmmeloord",
		"website": "http://www.gkvemmeloord.nl",
		"twitter": {
			"statuses_count": 199,
			"followers_count": 84,
			"friends_count": 24
		},
		"facebook": {
			"graphUrl": "https://graph.facebook.com/GKVEMMELOORD",
			"id": "400265296705297",
			"likes": 140,
			"talking_about_count": 4,
			"were_here_count": 14,
			"checkins": 14,
			"location": {
				"city": "Emmeloord",
				"country": "Netherlands",
				"latitude": 52.7050798,
				"longitude": 5.7350931,
				"street": "Revelsant 86",
				"zip": "8303 ZD"
			},
			"website": "http://www.gkvemmeloord.nl"
		}
	},
	{
		"name": "Pinkstergemeente de Schuilplaats",
		"facebook_url": "http://www.facebook.com/pgdeschuilplaats",
		"twitter_name": "",
		"website": "http://www.pgdeschuilplaats.nl",
		"facebook": {
			"graphUrl": "https://graph.facebook.com/pgdeschuilplaats",
			"id": "524067750968461",
			"likes": 394,
			"talking_about_count": 51,
			"were_here_count": 2350,
			"checkins": 2350,
			"location": {
				"city": "Hekelingen",
				"country": "Netherlands",
				"latitude": 51.826399986944,
				"longitude": 4.3455924695999,
				"street": "Dorpsstraat 105a",
				"zip": "3209AE"
			},
			"website": "http://www.pgdeschuilplaats.nl"
		}
	},
	{
		"name": "City Life Church Zwolle",
		"facebook_url": "https://www.facebook.com/CLCZwolle",
		"twitter_name": "@CLCZwolle",
		"website": "http://www.clczwolle.nl",
		"twitter": {
			"statuses_count": 118,
			"followers_count": 183,
			"friends_count": 52
		},
		"facebook": {
			"graphUrl": "https://graph.facebook.com/CLCZwolle",
			"id": "320968718001901",
			"likes": 386,
			"talking_about_count": 37,
			"were_here_count": 151,
			"checkins": 151,
			"location": {
				"city": "Zwolle",
				"country": "Netherlands",
				"latitude": 52.517971,
				"longitude": 6.1056499,
				"street": "Bisschop Willebrandlaan 32",
				"zip": "8021GA"
			},
			"website": "http://www.clczwolle.nl"
		}
	},
	{
		"name": "PKN Kerk Lichtenvoorde",
		"facebook_url": "https://www.facebook.com/pages/PKN-Kerk-Lichtenvoorde/232492023555934",
		"twitter_name": "",
		"website": "http://www.kerkbladopweg.nl",
		"facebook": {
			"graphUrl": "https://graph.facebook.com/232492023555934",
			"id": "232492023555934",
			"likes": 103,
			"talking_about_count": 51,
			"were_here_count": 5,
			"checkins": 5,
			"location": {
				"city": "Lichtenvoorde",
				"country": "Netherlands",
				"latitude": 51.9882813,
				"longitude": 6.5692101,
				"street": "Rentenierstraat 9",
				"zip": "7131 DK"
			},
			"website": "http://www.kerkbladopweg.nl"
		}
	},
	{
		"name": "GKV Leeuwarden",
		"facebook_url": "https://www.facebook.com/gkv.morgenster",
		"twitter_name": "",
		"website": "http://www.gkvmorgenster.nl",
		"facebook": {
			"graphUrl": "https://graph.facebook.com/gkv.morgenster",
			"message": "(#803) Cannot query users by their username (gkv.morgenster)"
		}
	},
	{
		"name": "PKN Denekamp",
		"facebook_url": "https://www.facebook.com/pages/PKN-Denekamp/594514513992457",
		"twitter_name": "",
		"website": "http://www.pkn-denekamp.nl",
		"facebook": {
			"graphUrl": "https://graph.facebook.com/594514513992457",
			"id": "594514513992457",
			"likes": 64,
			"talking_about_count": 11,
			"were_here_count": 3,
			"checkins": 3,
			"location": {
				"city": "Denekamp",
				"country": "Netherlands",
				"latitude": 52.3748398,
				"longitude": 7.0045099,
				"street": "Grotestraat 3",
				"zip": "7591dk"
			},
			"website": "http://www.pkn-denekamp.nl"
		}
	},
	{
		"name": "NGK Culemborg",
		"facebook_url": "https://www.facebook.com/#!/groups/353879298071288/",
		"twitter_name": "",
		"website": "http://www.ngkculemborg.nl/",
		"facebook": {
			"graphUrl": "https://graph.facebook.com/353879298071288",
			"id": "353879298071288"
		}
	},
	{
		"name": "Pkn Denekamp",
		"facebook_url": "http://www.facebook.com/pages/PKN-Denekamp/594514513992457",
		"twitter_name": "",
		"website": "http://www.pkn-denekamp.nl/",
		"facebook": {
			"graphUrl": "https://graph.facebook.com/594514513992457",
			"id": "594514513992457",
			"likes": 64,
			"talking_about_count": 11,
			"were_here_count": 3,
			"checkins": 3,
			"location": {
				"city": "Denekamp",
				"country": "Netherlands",
				"latitude": 52.3748398,
				"longitude": 7.0045099,
				"street": "Grotestraat 3",
				"zip": "7591dk"
			},
			"website": "http://www.pkn-denekamp.nl"
		}
	},
	{
		"name": "Hervormde Kerk Vledderveen (Groningen)",
		"facebook_url": "http://www.facebook.com/hervormdekerkvledderveen",
		"twitter_name": "",
		"website": "http://www.jeruel.nl",
		"facebook": {
			"graphUrl": "https://graph.facebook.com/hervormdekerkvledderveen",
			"id": "538880022879423",
			"likes": 74,
			"were_here_count": 5,
			"checkins": 5,
			"location": {
				"city": "Vledderveen",
				"country": "Netherlands",
				"latitude": 52.9801712,
				"longitude": 7.0081902,
				"street": "Waterschapsweg 32",
				"zip": "9585 PD"
			},
			"website": "http://www.jeruel.nl"
		}
	},
	{
		"name": "GKV Oldehove",
		"facebook_url": "https://www.facebook.com/groups/229761280373009",
		"twitter_name": "",
		"website": "http://www.oldehove.gkv.nl/",
		"facebook": {
			"graphUrl": "https://graph.facebook.com/229761280373009",
			"id": "229761280373009"
		}
	},
	{
		"name": "Evangelische Kerk De Vriendschap",
		"facebook_url": "https://www.facebook.com/pages/De-Vriendschap/328348964013554",
		"twitter_name": "",
		"website": "http://www.ekvriendschap.nl",
		"facebook": {
			"graphUrl": "https://graph.facebook.com/328348964013554",
			"id": "328348964013554",
			"likes": 24,
			"location": {
				"city": "Alkmaar",
				"street": "Arubastraat 2",
				"zip": "1825 PV"
			},
			"website": "http://www.ekvriendschap.nl"
		}
	},
	{
		"name": "Protestantse kerk Haskeroord te Oudehaske",
		"facebook_url": "https://www.facebook.com/pages/PKN-Oudehaske/450155105019420?fref=ts",
		"twitter_name": "@pknoudehaske",
		"website": "http://www.pknoudehaske.nl",
		"twitter": {
			"statuses_count": 963,
			"followers_count": 123,
			"friends_count": 141
		},
		"facebook": {
			"graphUrl": "https://graph.facebook.com/450155105019420?fref=ts",
			"message": "An access token is required to request this resource."
		}
	},
	{
		"name": "NGK Ede De Pelgrim",
		"facebook_url": "https://www.facebook.com/ngkdepelgrim",
		"twitter_name": "@ngkdepelgrim",
		"website": "http://www.ngkdepelgrim.nl/",
		"twitter": {
			"statuses_count": 10,
			"followers_count": 28,
			"friends_count": 57
		},
		"facebook": {
			"graphUrl": "https://graph.facebook.com/ngkdepelgrim",
			"id": "1575649986014679",
			"likes": 139,
			"talking_about_count": 17,
			"location": {
				"city": "Ede",
				"country": "Netherlands",
				"latitude": 52.0233192,
				"longitude": 5.6613698,
				"street": "Bovenbuurtweg 1",
				"zip": "6717 XA"
			},
			"website": "http://www.ngkdepelgrim.nl"
		}
	},
	{
		"name": "Gkv Dalfsen-oost",
		"facebook_url": "https://www.facebook.com/gkvdalfsenoost?fref=ts",
		"twitter_name": "",
		"website": "http://dalfsen-oost.gkv.nl/",
		"facebook": {
			"graphUrl": "https://graph.facebook.com/gkvdalfsenoost?fref=ts",
			"message": "An access token is required to request this resource."
		}
	},
	{
		"name": "De Nieuwe Rank",
		"facebook_url": "https://www.facebook.com/denieuwerank",
		"twitter_name": "",
		"website": "http://www.denieuwerank.nl/",
		"facebook": {
			"graphUrl": "https://graph.facebook.com/denieuwerank",
			"id": "307751632670425",
			"likes": 161,
			"talking_about_count": 27,
			"website": "http://www.denieuwerank.nl"
		}
	},
	{
		"name": "Faith Westland",
		"facebook_url": "https://www.facebook.com/FaithWestland",
		"twitter_name": "@FaithWestland",
		"website": "http://www.faithwestland.nl",
		"twitter": {
			"statuses_count": 619,
			"followers_count": 75,
			"friends_count": 86
		},
		"facebook": {
			"graphUrl": "https://graph.facebook.com/FaithWestland",
			"id": "367588929994106",
			"likes": 219,
			"talking_about_count": 16,
			"were_here_count": 11,
			"checkins": 11,
			"location": {
				"city": "'s-Gravenzande",
				"country": "Netherlands",
				"latitude": 52.0023384,
				"longitude": 4.1708298,
				"street": "Koningin Julianaweg 61",
				"zip": "2691GC"
			},
			"website": "http://www.faithwestland.nl"
		}
	},
	{
		"name": "GKV de Rank",
		"facebook_url": "https://www.facebook.com/GKVdeRank?fref=ts",
		"twitter_name": "@GKVRankZuidhorn",
		"website": "http://www.derank.nl/",
		"twitter": {
			"statuses_count": 502,
			"followers_count": 176,
			"friends_count": 133
		},
		"facebook": {
			"graphUrl": "https://graph.facebook.com/GKVdeRank?fref=ts",
			"message": "An access token is required to request this resource."
		}
	},
	{
		"name": "GKV Ridderkerk - Maranatha",
		"facebook_url": "",
		"twitter_name": "@MaranathaRkerk",
		"website": "http://ridderkerk.gkv.nl",
		"twitter": {
			"statuses_count": 26,
			"followers_count": 27,
			"friends_count": 1
		}
	},
	{
		"name": "Protestantse Gemeente Zeewolde",
		"facebook_url": "https://www.facebook.com/pgzeewolde",
		"twitter_name": "@pgzeewolde",
		"website": "http://www.pgzeewolde.nl",
		"twitter": {
			"statuses_count": 315,
			"followers_count": 144,
			"friends_count": 74
		},
		"facebook": {
			"graphUrl": "https://graph.facebook.com/pgzeewolde",
			"id": "236545841821",
			"likes": 307,
			"talking_about_count": 19,
			"were_here_count": 17,
			"checkins": 17,
			"location": {
				"city": "Zeewolde",
				"country": "Netherlands",
				"latitude": 52.3310585,
				"longitude": 5.5424299,
				"street": "Kerkplein 8",
				"zip": "3891 ED"
			},
			"website": "http://www.pgzeewolde.nl"
		}
	},
	{
		"name": "Lijnbaankerk Aalsmeer",
		"facebook_url": "https://www.facebook.com/lijnbaankerk?ref=hl",
		"twitter_name": "",
		"website": "http://www.lijnbaankerk.nl",
		"facebook": {
			"graphUrl": "https://graph.facebook.com/lijnbaankerk?ref=hl",
			"message": "An access token is required to request this resource."
		}
	},
	{
		"name": "Gereformeerde Kerk Boven-Hardinxveld",
		"facebook_url": "https://www.facebook.com/gereformeerdekerkbovenhardinxveld",
		"twitter_name": "",
		"website": "http://www.pknbovenhardinxveld.nl",
		"facebook": {
			"graphUrl": "https://graph.facebook.com/gereformeerdekerkbovenhardinxveld",
			"id": "1957391221067295",
			"likes": 161,
			"talking_about_count": 59,
			"were_here_count": 25,
			"checkins": 25,
			"location": {
				"city": "Boven-Hardinxveld",
				"country": "Netherlands",
				"latitude": 51.82183753,
				"longitude": 4.88693415,
				"street": "Jan Steenstraat 5",
				"zip": "3372 XN"
			},
			"website": "http://www.pknbovenhardinxveld.nl"
		}
	},
	{
		"name": "Protestants Marken",
		"facebook_url": "https://www.facebook.com/protestantsmarken",
		"twitter_name": "",
		"website": "http://www.protestantsmarken.nl/",
		"facebook": {
			"graphUrl": "https://graph.facebook.com/protestantsmarken",
			"id": "426889694154896",
			"likes": 117,
			"talking_about_count": 33,
			"location": {
				"city": "Marken",
				"street": "Hoogkamplaan 1",
				"zip": "1156 AK"
			},
			"website": "http://www.protestantsmarken.nl"
		}
	},
	{
		"name": "Protestantse Gemeente Biddinghuizen",
		"facebook_url": "https://www.facebook.com/KerkBiddinghuizen",
		"twitter_name": "@KerkBHZ",
		"website": "http://www.pgbiddinghuizen.nl/",
		"twitter": {
			"statuses_count": 1045,
			"followers_count": 93,
			"friends_count": 149
		},
		"facebook": {
			"graphUrl": "https://graph.facebook.com/KerkBiddinghuizen",
			"id": "263795947105350",
			"likes": 151,
			"talking_about_count": 56,
			"were_here_count": 36,
			"checkins": 36,
			"location": {
				"city": "Biddinghuizen",
				"country": "Netherlands",
				"latitude": 52.4559402,
				"longitude": 5.6916599,
				"street": "Akkerhof 3",
				"zip": "8256 BK"
			},
			"website": "http://www.pgbiddinghuizen.nl"
		}
	},
	{
		"name": "Pauluskerk Wezep",
		"facebook_url": "http://facebook.com/pauluskerkwezep",
		"twitter_name": "@pauluskerk",
		"website": "http://www.pauluskerkwezep.nl",
		"twitter": {
			"statuses_count": 1242,
			"followers_count": 376,
			"friends_count": 364
		},
		"facebook": {
			"graphUrl": "https://graph.facebook.com/pauluskerkwezep",
			"message": "Unsupported get request. Please read the Graph API documentation at https://developers.facebook.com/docs/graph-api"
		}
	},
	{
		"name": "Vrije Evangelische Gemeente Hilversum",
		"facebook_url": "https://www.facebook.com/Vrije-Evangelische-Gemeente-Hilversum-632234140147406/",
		"twitter_name": "@veghilversum",
		"website": "http://www.veghilversum.nl",
		"twitter": {
			"statuses_count": 1168,
			"followers_count": 141,
			"friends_count": 145
		},
		"facebook": {
			"graphUrl": "https://graph.facebook.com/Vrije-Evangelische-Gemeente-Hilversum-632234140147406",
			"message": "(#803) Some of the aliases you requested do not exist: Vrije-Evangelische-Gemeente-Hilversum-632234140147406"
		}
	}
]